gestor_red,provincia,municipio,lat,lon,subestacion_nombre,subestacion,kv,cap_disp,cap_comp,cap_ocup,cap_no_eval,comentarios,cap_total,porcentaje_disponible,color,radius
VIESGO,Asturias,Valdés,43.531231,-6.522582,ALMUÑA,101,20.0,7.9140000000000015,0.0,17.086,0.0,,25.0,31.7,yellow,3.4641807210273865
VIESGO,Asturias,Valdés,43.531231,-6.522582,ALMUÑA,101,132.0,30.0,0.0,0.0,0.0,,30.0,100.0,green,3.557016865232864
VIESGO,Asturias,Coaña,43.478806,-6.730786,ARBON,158,30.0,1.9060000000000001,0.0,23.094,0.0,,25.0,7.6,orange,3.4641807210273865
VIESGO,Asturias,Coaña,43.478806,-6.730786,ARBON,158,132.0,30.0,0.0,79.0,0.0,,109.0,27.5,yellow,5.0238279436794055
VIESGO,Asturias,Cabrales,43.300845,-4.809833,ARENAS,540,132.0,12.0,0.0,0.0,0.0,,12.0,100.0,green,3.2228067460931458
VIESGO,Asturias,Mieres del Camino,43.274761,-5.827762,BAIÑA,212,12.0,0.0,0.0,1.949,0.0,,1.95,0.0,red,3.036187529011295
VIESGO,Asturias,Mieres del Camino,43.274761,-5.827762,BAIÑA,212,30.0,1.3850000000000002,0.0,0.6,0.0,,1.99,69.8,lightgreen,3.0368559492495746
VIESGO,Asturias,Cabrales,43.260083,-4.831409,CAMARMEÑA,560,132.0,15.0,0.0,0.0,0.0,,15.0,100.0,green,3.278508432616432
VIESGO,Asturias,Lena,43.104724,-5.814095,CAMPOMANES,754,12.0,0.19,0.0,1.096,0.0,,1.29,14.8,orange,3.023877456289649
VIESGO,Asturias,Lena,43.104724,-5.814095,CAMPOMANES,754,30.0,0.0,0.0,0.0,0.0,,0.0,0.0,red,3.0
VIESGO,Asturias,Cangas de Onís,43.344266,-5.131372,CANGAS,574,132.0,10.0,0.0,0.0,0.0,,10.0,100.0,green,3.1856722884109545
VIESGO,Asturias,Illano,43.389233,-6.822408,DOIRAS,59,30.0,7.5,0.0,0.0,0.0,,7.5,100.0,green,3.139254216308216
VIESGO,Asturias,Illano,43.389233,-6.822408,DOIRAS,59,132.0,30.0,0.0,0.0,0.0,,30.0,100.0,green,3.557016865232864
VIESGO,Asturias,Allande,43.270763,-6.677089,EL PALO,82,132.0,0.0,0.0,0.0,0.0,,0.0,0.0,red,3.0
VIESGO,Asturias,Aller,43.139456,-5.576014,ENTREPEÑAS,192,12.0,1.556,0.0,2.517,0.0,,4.07,38.2,yellow,3.075624323069782
VIESGO,Asturias,Aller,43.139456,-5.576014,ENTREPEÑAS,192,30.0,1.556,0.0,0.0,0.0,,1.56,100.0,green,3.0288906080767446
VIESGO,Asturias,Navia,43.538533,-6.765902,JARRIO,93,20.0,6.35,0.0,12.123000000000001,0.0,,18.47,34.4,yellow,3.3429924183815567
VIESGO,Asturias,Navia,43.538533,-6.765902,JARRIO,93,132.0,9.0,0.0,0.0,0.0,,9.0,100.0,green,3.167105059569859
VIESGO,Asturias,Mieres del Camino,43.076133,-5.765557,LA_OLLA,462,12.0,1.556,0.0,7.536,0.0,,9.09,17.1,orange,3.16881324462324
VIESGO,Asturias,Mieres del Camino,43.076133,-5.765557,LA_OLLA,462,30.0,1.556,0.0,0.0,0.0,,1.56,100.0,green,3.0288906080767446
VIESGO,Asturias,Aller,43.166403,-5.736331,MOREDA,685,12.0,1.556,0.0,3.342,0.0,,4.9,31.8,yellow,3.0909422868636858
VIESGO,Asturias,Aller,43.166403,-5.736331,MOREDA,685,30.0,1.556,0.0,0.0,0.0,,1.56,100.0,green,3.0288906080767446
VIESGO,Asturias,Tineo,43.38946,-6.395436,PICO GALLO,1040,132.0,35.0,0.0,0.0,0.0,,35.0,100.0,green,3.6498530094383415
VIESGO,Asturias,Lena,43.145121,-5.824727,POLA_LENA,838,12.0,1.556,0.0,4.235,0.0,,5.79,26.9,yellow,3.107522822218784
VIESGO,Asturias,Lena,43.145121,-5.824727,POLA_LENA,838,30.0,1.556,0.0,0.0,0.0,,1.56,100.0,green,3.0288906080767446
VIESGO,Asturias,Mieres del Camino,43.236145,-5.778601,POLIGONO,430,12.0,0.30600000000000005,0.0,8.665,0.0,,8.97,3.4,orange,3.1665666099334673
VIESGO,Asturias,Mieres del Camino,43.236145,-5.778601,POLIGONO,430,30.0,1.556,0.0,0.0,0.0,,1.56,100.0,green,3.0288906080767446
VIESGO,Asturias,Mieres del Camino,43.274687,-5.824701,POLIGONO DE BAIÑA,1757,30.0,1.985,0.0,24.304,0.0,,26.29,7.6,orange,3.4881138790035586
VIESGO,Asturias,Mieres del Camino,43.274687,-5.824701,POLIGONO DE BAIÑA,1757,132.0,1.985,0.0,0.0,0.0,,1.98,100.0,green,3.0368559492495746
VIESGO,Asturias,Vegadeo,43.462031,-7.021901,PORZUN,978,20.0,8.95,0.0,12.132000000000001,0.0,,21.08,42.5,yellow,3.391434318427975
VIESGO,Asturias,Vegadeo,43.462031,-7.021901,PORZUN,978,132.0,11.0,0.0,0.0,0.0,,11.0,100.0,green,3.2042395172520504
VIESGO,Asturias,Illano,43.423204,-6.820978,SAN_LUIS,236,30.0,7.5,0.0,0.0,0.0,,7.5,100.0,green,3.139254216308216
VIESGO,Asturias,Mieres del Camino,43.197773,-5.782067,SANTA_CRUZ,328,12.0,0.382,0.0,5.918,0.0,,6.3,6.1,orange,3.1169735416989015
VIESGO,Asturias,Mieres del Camino,43.197773,-5.782067,SANTA_CRUZ,328,30.0,0.656,0.0,56.415,2.5,,59.57,1.1,orange,4.106068389292898
VIESGO,Asturias,Mieres del Camino,43.197773,-5.782067,SANTA_CRUZ,328,132.0,1.556,0.0,45.0,0.0,,46.56,3.3,orange,3.8644159059260406
VIESGO,Asturias,Grandas,43.242788,-6.854657,SANZO,1015,12.0,0.0,0.0,1.866,0.0,,1.87,0.0,red,3.034646449017484
VIESGO,Asturias,Grandas,43.242788,-6.854657,SANZO,1015,132.0,100.0,0.0,0.0,0.0,Capacidad limitada según art. 3.2 Especificaciones de Detalle Capacidad Firme,100.0,100.0,green,4.856722884109547
VIESGO,Asturias,Siero,43.379344,-5.757029,SIERO,668,132.0,0.0,0.0,0.0,0.0,,0.0,0.0,red,3.0
VIESGO,Asturias,Tapia de Casariego,43.561224,-6.939191,TAPIA,513,20.0,9.43,0.0,4.946,0.0,,14.38,65.6,lightgreen,3.2669224818195883
VIESGO,Asturias,Lena,43.026863,-5.838503,TELLEDO,28,30.0,0.0,0.0,30.96,0.0,,30.96,0.0,red,3.5748414049203157
VIESGO,Burgos,Arija,42.988278,-3.963625,ARIJA,161,12.0,0.0,0.0,2.202,0.0,,2.2,0.0,red,3.040885037908092
VIESGO,Burgos,Arija,42.988278,-3.963625,ARIJA,161,30.0,0.0,0.0,0.0,0.0,,0.0,0.0,red,3.0
VIESGO,Burgos,Melgar de Fernamental,42.40287,-4.230315,MELGAR,594,12.0,0.12,0.0,4.615,0.0,,4.74,2.5,orange,3.087915828562587
VIESGO,Burgos,Melgar de Fernamental,42.40287,-4.230315,MELGAR,594,30.0,0.0,0.0,0.0,0.0,,0.0,0.0,red,3.0
VIESGO,Burgos,Villadiego,42.510118,-4.023715,VILLADIEGO,429,12.0,0.0,0.0,1.528,0.0,,1.53,0.0,red,3.028370725669194
VIESGO,Burgos,Villadiego,42.510118,-4.023715,VILLADIEGO,429,30.0,0.0,0.0,0.0,0.0,,0.0,0.0,red,3.0
VIESGO,Palencia,Aguilar de Campoo,42.783672,-4.254044,AGUILAR_P,1,12.0,1.459,0.0,4.541,0.0,,6.0,24.3,orange,3.111403373046573
VIESGO,Palencia,Aguilar de Campoo,42.783672,-4.254044,AGUILAR_P,1,30.0,2.0,0.0,0.0,0.0,,2.0,100.0,green,3.037134457682191
VIESGO,Cantabria,Bárcena de Cicero,43.423219,-3.533135,AMBROSERO,159,12.0,0.8734109315071527,0.0,6.358,0.0,,7.23,12.1,orange,3.134267261609293
VIESGO,Cantabria,Bárcena de Cicero,43.423219,-3.533135,AMBROSERO,159,55.0,0.0,0.0,0.0,0.0,,0.0,0.0,red,3.0
VIESGO,Cantabria,Arenas de Iguña,43.174144,-4.05625,ARENAS_IGUNA,1021,12.0,1.1348142820646956,0.0,6.433,0.0,,7.57,15.0,orange,3.140513339602006
VIESGO,Cantabria,Arenas de Iguña,43.174144,-4.05625,ARENAS_IGUNA,1021,55.0,0.0,0.0,2.78,0.0,,2.78,0.0,red,3.0516168961782455
VIESGO,Cantabria,Escalante,43.449261,-3.496373,ARGOÑOS,623,12.0,0.8760697166867788,0.0,14.354,6.56,,21.79,4.0,orange,3.4045812108931477
VIESGO,Cantabria,Escalante,43.449261,-3.496373,ARGOÑOS,623,55.0,0.0,0.0,0.0,0.0,,0.0,0.0,red,3.0
VIESGO,Cantabria,El Astillero,43.396089,-3.826795,ASTILLERO,151,12.0,1.1130000000000002,0.0,38.88699999999999,4.66,,44.66,2.5,orange,3.8292124400433236
VIESGO,Cantabria,El Astillero,43.396089,-3.826795,ASTILLERO,151,55.0,0.0,0.0,87.46950000000001,0.0,,87.47,0.0,red,4.6240662231162
VIESGO,Cantabria,Brañavieja,43.035193,-4.356917,BRAÑAVIEJA,327,12.0,2.0,0.0,2.839,0.0,,4.84,41.3,yellow,3.089846820362061
VIESGO,Cantabria,Brañavieja,43.035193,-4.356917,BRAÑAVIEJA,327,30.0,0.0,0.0,0.0,0.0,,0.0,0.0,red,3.0
VIESGO,Cantabria,Cabezón de la Sal,43.312163,-4.244248,CABEZON,56,12.0,0.18100000000000005,0.0,13.319,0.0,,13.5,1.3,orange,3.250657589354789
VIESGO,Cantabria,Cabezón de la Sal,43.312163,-4.244248,CABEZON,56,55.0,0.0,0.0,0.0,0.0,,0.0,0.0,red,3.0
VIESGO,Cantabria,Camarto,43.4359,-3.868017,CACICEDO,533,12.0,4.77,0.0,46.443,10.0,,61.21,7.8,orange,4.136555779049977
VIESGO,Cantabria,Camarto,43.4359,-3.868017,CACICEDO,533,55.0,0.0,0.0,95.0,6.0,,101.0,0.0,red,4.875290112950642
VIESGO,Cantabria,Santander,43.450884,-3.833555,CANDINA,95,12.0,4.71,0.0,40.5,0.0,,45.21,10.4,orange,3.839424415905926
VIESGO,Cantabria,Santander,43.450884,-3.833555,CANDINA,95,55.0,0.0,0.0,0.0,0.0,,0.0,0.0,red,3.0
VIESGO,Cantabria,Villacarriedo,43.242381,-3.836729,CARRIEDO,788,12.0,1.1693982199577684,0.0,4.379,0.0,,5.55,21.1,orange,3.1030183794514827
VIESGO,Cantabria,Villacarriedo,43.242381,-3.836729,CARRIEDO,788,55.0,0.0,0.0,0.0,0.0,,0.0,0.0,red,3.0
VIESGO,Cantabria,Celis,43.280386,-4.439203,CELIS,1072,12.0,0.369,0.0,1.131,0.0,,1.5,24.6,orange,3.027850843261643
VIESGO,Cantabria,Celis,43.280386,-4.439203,CELIS,1072,55.0,0.0,0.0,0.0,0.0,,0.0,0.0,red,3.0
VIESGO,Cantabria,Solórzano,43.392739,-3.524104,CICERO,133,55.0,0.0,0.0,0.0,0.0,,0.0,0.0,red,3.0
VIESGO,Cantabria,Comillas,43.369066,-4.281277,COMILLAS,153,12.0,3.01,0.0,4.167,0.0,,7.18,41.9,yellow,3.133257001392542
VIESGO,Cantabria,Comillas,43.369066,-4.281277,COMILLAS,153,55.0,0.0,0.0,0.0,0.0,,0.0,0.0,red,3.0
VIESGO,Cantabria,Santa Cruz de Bezana,43.463013,-3.877841,CORBAN,877,12.0,4.4510000000000005,0.0,15.549,0.0,,20.0,22.3,orange,3.3713445768219095
VIESGO,Cantabria,Santa Cruz de Bezana,43.463013,-3.877841,CORBAN,877,55.0,0.0,0.0,2.65,0.0,,2.65,0.0,red,3.049203156428903
VIESGO,Cantabria,Los Corrales de Buelna,43.252091,-4.069228,CORRALES,264,12.0,0.48695245673706733,0.0,11.011,0.0,,11.5,4.2,orange,3.213485114468273
VIESGO,Cantabria,Los Corrales de Buelna,43.252091,-4.069228,CORRALES,264,55.0,0.0,0.0,6.0,0.0,,6.0,0.0,red,3.111403373046573
VIESGO,Cantabria,Entrambasaguas,43.391071,-3.719038,EL_BOSQUE,33,12.0,0.7160709179686658,0.0,15.872,0.0,,16.59,4.3,orange,3.307994508766245
VIESGO,Cantabria,Entrambasaguas,43.391071,-3.719038,EL_BOSQUE,33,55.0,0.0,0.0,0.0,0.0,,0.0,0.0,red,3.0
VIESGO,Cantabria,Camargo,43.40532,-3.901336,ESCOBEDO,890,12.0,5.58,0.0,6.42,0.0,,12.0,46.5,yellow,3.2228067460931458
VIESGO,Cantabria,Camargo,43.40532,-3.901336,ESCOBEDO,890,55.0,0.0,0.0,0.0,0.0,,0.0,0.0,red,3.0
VIESGO,Cantabria,Herrerías,43.329647,-4.506675,HERRERIAS,8500,12.0,1.368,0.0,0.132,0.0,,1.5,91.2,green,3.027850843261643
VIESGO,Cantabria,Herrerías,43.329647,-4.506675,HERRERIAS,8500,55.0,0.0,0.0,0.0,0.0,,0.0,0.0,red,3.0
VIESGO,Cantabria,Labarces,43.323465,-4.382978,LABARCES,32,12.0,0.0,0.0,2.683,0.0,,2.68,0.0,red,3.049815874980659
VIESGO,Cantabria,Labarces,43.323465,-4.382978,LABARCES,32,55.0,0.0,0.0,0.0,0.0,,0.0,0.0,red,3.0
VIESGO,Cantabria,Labarces,43.323465,-4.382978,LABARCES,32,132.0,0.0,0.0,0.0,0.0,,0.0,0.0,red,3.0
VIESGO,Cantabria,Peñarrubia,43.252299,-4.608957,LA_HERMIDA,126,12.0,0.506,0.0,0.494,0.0,,1.0,50.6,lightgreen,3.0185672288410954
VIESGO,Cantabria,Peñarrubia,43.252299,-4.608957,LA_HERMIDA,126,30.0,0.0,0.0,5.306,0.0,,5.31,0.0,red,3.0985177162308526
VIESGO,Cantabria,Peñarrubia,43.252299,-4.608957,LA_HERMIDA,126,132.0,7.0,0.0,0.0,0.0,,7.0,100.0,green,3.1299706018876683
VIESGO,Cantabria,Santander,43.475085,-3.800606,LAS_LLAMAS,303,12.0,4.69,0.0,22.577,0.0,,27.27,17.2,orange,3.5062726288101502
VIESGO,Cantabria,Santander,43.475085,-3.800606,LAS_LLAMAS,303,55.0,0.0,0.0,0.0,0.0,,0.0,0.0,red,3.0
VIESGO,Cantabria,Arnuero,43.471365,-3.585499,LA_VENERA,188,12.0,1.0541718019472777,0.0,15.771,0.0,,16.83,6.3,orange,3.3123968151375016
VIESGO,Cantabria,Arnuero,43.471365,-3.585499,LA_VENERA,188,55.0,0.0,0.0,0.0,0.0,,0.0,0.0,red,3.0
VIESGO,Cantabria,El Astillero,43.41433,-3.841276,MALIAÑO,707,12.0,0.0,0.0,25.515,0.0,,25.52,0.0,red,3.473742843880551
VIESGO,Cantabria,El Astillero,43.41433,-3.841276,MALIAÑO,707,55.0,0.0,0.0,5.093,0.0,,5.09,0.0,red,3.094562896487699
VIESGO,Cantabria,Mataporquera,42.879351,-4.159725,MATAPORQUERA,370,30.0,2.0,0.0,17.471,0.0,,19.47,10.3,orange,3.36152251276497
VIESGO,Cantabria,Mataporquera,42.879351,-4.159725,MATAPORQUERA,370,132.0,0.0,0.0,66.0,50.0,,116.0,0.0,red,5.153798545567074
VIESGO,Cantabria,Entrambasaguas,43.398004,-3.742632,M_CUDEYO,373,12.0,0.5254498848486521,0.0,9.3813745847904,0.0,,9.91,5.3,orange,3.1839422770163526
VIESGO,Cantabria,Entrambasaguas,43.398004,-3.742632,M_CUDEYO,373,55.0,0.0,0.0,42.95,0.0,,42.95,0.0,red,3.79746247872505
VIESGO,Cantabria,Los Corrales de Buelna,43.256277,-4.058998,MECOBUSA,1013,55.0,0.0,0.0,19.8,0.0,,19.8,0.0,red,3.3676311310536904
VIESGO,Cantabria,San Miguel de Meruelo,43.431026,-3.607621,MERUELO,1782,12.0,0.6666409588408775,0.0,4.697,0.0,,5.36,12.4,orange,3.0995879491042713
VIESGO,Cantabria,San Miguel de Meruelo,43.431026,-3.607621,MERUELO,1782,55.0,0.0,0.0,0.0,0.0,,0.0,0.0,red,3.0
VIESGO,Cantabria,Camargo,43.437387,-3.8425,N_MONTAÑA,1000,12.0,1.22,0.0,11.847,0.0,,13.07,9.3,orange,3.2426179792665946
VIESGO,Cantabria,Camargo,43.437387,-3.8425,N_MONTAÑA,1000,55.0,0.0,0.0,4.3,0.0,,4.3,0.0,red,3.0798390840167107
VIESGO,Cantabria,Ojedo,43.164829,-4.60893,OJEDO,704,12.0,0.06,0.0,4.646,0.0,,4.71,1.3,orange,3.0873773789261953
VIESGO,Cantabria,Ojedo,43.164829,-4.60893,OJEDO,704,30.0,0.0,0.0,0.0,0.0,,0.0,0.0,red,3.0
VIESGO,Cantabria,Penagos,43.347159,-3.824621,PENAGOS,329,12.0,1.986,0.0,5.514,0.0,,7.5,26.5,yellow,3.139254216308216
VIESGO,Cantabria,Penagos,43.347159,-3.824621,PENAGOS,329,55.0,0.0,0.0,0.0,0.0,,0.0,0.0,red,3.0
VIESGO,Cantabria,Tudanca,43.149302,-4.378098,PEÑA BEJO,26,12.0,0.913,0.0,0.587,0.0,,1.5,60.9,lightgreen,3.027850843261643
VIESGO,Cantabria,Tudanca,43.149302,-4.378098,PEÑA BEJO,26,55.0,0.0,0.0,0.0,0.0,,0.0,0.0,red,3.0
VIESGO,Cantabria,Valderredible,42.804563,-3.94829,POLIENTES,903,12.0,0.31,0.0,5.514,0.0,,5.82,5.3,orange,3.10813554077054
VIESGO,Cantabria,Valderredible,42.804563,-3.94829,POLIENTES,903,30.0,0.0,0.0,0.0,0.0,,0.0,0.0,red,3.0
VIESGO,Cantabria,Santander,43.450082,-3.878654,PT_SANTANDER,8,12.0,2.67,0.0,17.33,0.0,,20.0,13.4,orange,3.3713445768219095
VIESGO,Cantabria,Santander,43.450082,-3.878654,PT_SANTANDER,8,55.0,0.0,0.0,0.0,0.0,,0.0,0.0,red,3.0
VIESGO,Cantabria,Santander,43.440579,-3.832956,PUERTO,13,12.0,2.201,0.0,3.449,0.0,,5.65,39.0,yellow,3.1049048429521893
VIESGO,Cantabria,Santander,43.440579,-3.832956,PUERTO,13,55.0,0.0,0.0,32.15,0.0,,32.15,0.0,red,3.5969364072412193
VIESGO,Cantabria,Ramales de la Victoria,43.261604,-3.468807,RAMALES,87,12.0,0.8509429388870692,0.0,4.571,0.0,,5.42,15.7,orange,3.100670455309678
VIESGO,Cantabria,Ramales de la Victoria,43.261604,-3.468807,RAMALES,87,55.0,0.0,0.0,0.0,0.0,,0.0,0.0,red,3.0
VIESGO,Cantabria,Reinosa,42.98813,-4.142533,REINOSA,302,12.0,2.0,0.0,9.624,10.0,,21.62,9.2,orange,3.4014977564598485
VIESGO,Cantabria,Reinosa,42.98813,-4.142533,REINOSA,302,30.0,2.0,0.0,13.95,0.0,,15.95,12.5,orange,3.296147300015473
VIESGO,Cantabria,Reinosa,42.98813,-4.142533,REINOSA,302,132.0,0.0,0.0,0.0,0.0,,0.0,0.0,red,3.0
VIESGO,Cantabria,Piélagos,43.359371,-3.956452,RENEDO,756,12.0,0.526,0.0,15.703,0.0,,16.23,3.2,orange,3.3013275568621383
VIESGO,Cantabria,Piélagos,43.359371,-3.956452,RENEDO,756,55.0,0.0,0.0,0.0,0.0,,0.0,0.0,red,3.0
VIESGO,Cantabria,Reocín,43.335582,-4.099284,REOCIN,99,12.0,3.37,0.0,13.29,0.0,,16.66,20.2,orange,3.3093300324926505
VIESGO,Cantabria,Reocín,43.335582,-4.099284,REOCIN,99,55.0,0.0,0.0,4.36,0.0,,4.36,0.0,red,3.080953117747176
VIESGO,Cantabria,Santillana del Mar,43.368125,-4.052804,RIAÑO,1759,12.0,0.526,0.0,20.069,0.45,,21.04,2.5,orange,3.390747330960854
VIESGO,Cantabria,Santillana del Mar,43.368125,-4.052804,RIAÑO,1759,55.0,0.0,0.0,0.0,0.0,,0.0,0.0,red,3.0
VIESGO,Cantabria,Rionansa,43.22267,-4.38625,ROZADIO,1071,55.0,0.0,0.0,0.0,0.0,,0.0,0.0,red,3.0
VIESGO,Cantabria,Torrelavega,43.357407,-4.077529,SAN_MIGUEL,957,12.0,0.0,0.0,56.163000000000004,0.0,,56.16,0.0,red,4.042791273402445
VIESGO,Cantabria,Torrelavega,43.357407,-4.077529,SAN_MIGUEL,957,55.0,0.0,0.0,20.09,25.0,,45.09,0.0,red,3.8371963484449947
VIESGO,Cantabria,Torrelavega,43.357407,-4.077529,SAN_MIGUEL,957,132.0,0.0,0.0,0.0,0.0,,0.0,0.0,red,3.0
VIESGO,Cantabria,Torrelavega,43.375704,-4.046363,SOLVAY_N,23,55.0,0.0,0.0,57.2,0.0,,57.2,0.0,red,4.062045489710661
VIESGO,Cantabria,San Vicente de la Barquera,43.358889,-4.389108,S_VICENTE,996,12.0,0.0,0.0,17.417,0.0,,17.42,0.0,red,3.32338542472536
VIESGO,Cantabria,San Vicente de la Barquera,43.358889,-4.389108,S_VICENTE,996,55.0,0.0,0.0,0.0,0.0,,0.0,0.0,red,3.0
VIESGO,Cantabria,Torrelavega,43.32795,-4.046547,TANOS,1010,12.0,0.6381128645933631,0.0,20.448,7.0,,28.09,2.3,orange,3.5214812848137402
VIESGO,Cantabria,Torrelavega,43.32795,-4.046547,TANOS,1010,55.0,0.0,0.0,0.0,17.3,,17.3,0.0,red,3.321213058950952
VIESGO,Cantabria,Santander,43.464532,-3.806335,TANTIN,125,12.0,4.2497300000000005,0.0,23.75027,0.0,,28.0,15.2,orange,3.519882407550673
VIESGO,Cantabria,Santander,43.464532,-3.806335,TANTIN,125,55.0,0.0,0.0,0.0,0.0,,0.0,0.0,red,3.0
VIESGO,Cantabria,Vega de Liébana,43.212846,-3.945089,TORANZO,518,12.0,0.985916073763641,0.0,4.783,0.0,,5.77,17.1,orange,3.1071127849066436
VIESGO,Cantabria,Vega de Liébana,43.212846,-3.945089,TORANZO,518,55.0,0.0,0.0,0.0,0.0,,0.0,0.0,red,3.0
VIESGO,Cantabria,Molledo,43.119506,-4.046824,TORINA,363,12.0,0.8334459945890726,0.0,7.618,0.0,,8.45,9.9,orange,3.156919931819695
VIESGO,Cantabria,Molledo,43.119506,-4.046824,TORINA,363,55.0,0.0,0.0,8.35,0.0,,8.35,0.0,red,3.1550363608231473
VIESGO,Cantabria,Bárcena de Cicero,43.396137,-3.475606,TRETO,54,12.0,0.6525825440626003,0.0,17.199,0.0,,17.85,3.7,orange,3.3314544182713153
VIESGO,Cantabria,Bárcena de Cicero,43.396137,-3.475606,TRETO,54,55.0,0.0,0.0,5.15,19.5,,24.65,0.0,red,3.4576821909330033
VIESGO,Cantabria,Ampuero,43.323432,-3.461288,UDALLA,1756,12.0,0.7289485864529048,0.0,9.753,0.0,,10.48,7.0,orange,3.194620738105268
VIESGO,Cantabria,Ampuero,43.323432,-3.461288,UDALLA,1756,55.0,0.0,0.0,0.0,0.0,,0.0,0.0,red,3.0
VIESGO,Cantabria,Peñarrubia,43.266375,-4.634082,URDON,604,30.0,0.0,0.0,4.156,0.0,,4.16,0.0,red,3.0771654030635927
VIESGO,Cantabria,Peñarrubia,43.266375,-4.634082,URDON,604,132.0,7.0,0.0,0.0,0.0,,7.0,100.0,green,3.1299706018876683
VIESGO,Cantabria,Santander,43.454523,-3.828235,VALDECILLA,22,12.0,0.8989999999999999,0.0,4.821,0.0,,5.72,15.7,orange,3.106204548971066
VIESGO,Cantabria,Santander,43.454523,-3.828235,VALDECILLA,22,55.0,0.0,0.0,4.5,0.0,,4.5,0.0,red,3.0835525297849298
VIESGO,Cantabria,Valdeolea,42.875014,-4.165098,VALDEOLEA,389,12.0,0.661,0.0,0.839,0.0,,1.5,44.1,yellow,3.027850843261643
VIESGO,Cantabria,Valdeolea,42.875014,-4.165098,VALDEOLEA,389,30.0,0.0,0.0,0.0,0.0,,0.0,0.0,red,3.0
VIESGO,Lugo,Viveiro,43.589048,-7.552885,BOIMENTE,1067,132.0,100.0,0.0,0.0,0.0,Capacidad disponible sujeta a la actualización del valor de referencia en el nudo de Boimente 400. Capacidad limitada según art. 3.2 Especificaciones de Detalle Capacidad Firme,100.0,100.0,green,4.856722884109547
VIESGO,Lugo,Vilalba,43.424908,-7.659439,CARBA,1039,132.0,70.0,0.0,0.0,0.0,Capacidad disponible sujeta a la actualización del valor de referencia en el nudo de Boimente 400,70.0,100.0,green,4.299706018876683
VIESGO,Lugo,Mondoñedo,43.42871,-7.41148,ESTELO,313,132.0,100.0,0.0,0.0,0.0,Capacidad disponible sujeta a la actualización del valor de referencia en el nudo de Boimente 400. Capacidad limitada según art. 3.2 Especificaciones de Detalle Capacidad Firme,100.0,100.0,green,4.856722884109547
VIESGO,Lugo,A Fonsagrada,43.084007,-7.132735,FONSAGRADA,1755,132.0,80.0,0.0,0.0,0.0,Capacidad disponible sujeta a la actualización del valor de referencia en el nudo de Boimente 400,80.0,100.0,green,4.485378307287638
VIESGO,Lugo,Castro de Rei,43.128495,-7.416743,LUDRIO,37,132.0,100.0,0.0,0.0,0.0,Capacidad disponible sujeta a la actualización del valor de referencia en el nudo de Boimente 400. Capacidad limitada según art. 3.2 Especificaciones de Detalle Capacidad Firme,100.0,100.0,green,4.856722884109547
VIESGO,Lugo,Mondoñedo,43.431833,-7.366829,MONDONEDO,73,132.0,68.0,0.0,0.0,0.0,Capacidad disponible sujeta a la actualización del valor de referencia en el nudo de Boimente 400,68.0,100.0,green,4.262571561194492
VIESGO,Lugo,Vilalba,43.313951,-7.66369,SETE_PONTES,1081,132.0,60.0,0.0,0.0,0.0,Capacidad disponible sujeta a la actualización del valor de referencia en el nudo de Boimente 400,60.0,100.0,green,4.114033730465728
VIESGO,Lugo,Lugo,43.017014,-7.517323,SAN_CIBRAO,77,132.0,100.0,0.0,0.0,0.0,Capacidad disponible sujeta a la actualización del valor de referencia en el nudo de Boimente 400. Capacidad limitada según art. 3.2 Especificaciones de Detalle Capacidad Firme,100.0,100.0,green,4.856722884109547
VIESGO,Lugo,Ribadeo,43.535338,-7.073353,RIBADEO,16,132.0,19.0,0.0,0.0,0.0,,19.0,100.0,green,3.352777347980814
VIESGO,Palencia,Barruelo de Santullán,42.903748,-4.283906,BARRUELO,260,12.0,0.0,0.0,1.601,0.0,,1.6,0.0,red,3.0297261333745937
VIESGO,Palencia,Barruelo de Santullán,42.903748,-4.283906,BARRUELO,260,30.0,2.0,0.0,0.0,0.0,,2.0,100.0,green,3.037134457682191
VIESGO,Palencia,Aguilar de Campoo,42.794809,-4.286685,C_AGUILAR,878,30.0,2.0,0.0,2.157,0.0,,4.16,48.1,yellow,3.0771839702924337
VIESGO,Palencia,Aguilar de Campoo,42.794809,-4.286685,C_AGUILAR,878,132.0,0.0,0.0,0.0,0.0,,0.0,0.0,red,3.0
VIESGO,Palencia,Carrión de lo Condes,42.345551,-4.606715,CARRION_N,182,12.0,0.12,0.0,5.747999999999999,0.0,,5.87,2.0,orange,3.1089524988395483
VIESGO,Palencia,Carrión de lo Condes,42.345551,-4.606715,CARRION_N,182,30.0,0.0,0.0,0.0,0.0,,0.0,0.0,red,3.0
VIESGO,Palencia,Dehesa de Montejo,42.854916,-4.489358,CERVERA,5,12.0,0.0,0.0,2.302,0.0,,2.3,0.0,red,3.0427417607922016
VIESGO,Palencia,Dehesa de Montejo,42.854916,-4.489358,CERVERA,5,30.0,0.0,0.0,0.0,0.0,,0.0,0.0,red,3.0
VIESGO,Palencia,Herrera de Pisuerga,42.599385,-4.338893,HERRERA,255,12.0,1.452,0.0,3.348,0.0,,4.8,30.2,yellow,3.0891226984372584
VIESGO,Palencia,Herrera de Pisuerga,42.599385,-4.338893,HERRERA,255,30.0,2.0,0.0,0.0,0.0,,2.0,100.0,green,3.037134457682191
VIESGO,Palencia,Aguilar de Campoo,42.785874,-4.281779,MAZUELAS,76,30.0,2.0,0.0,20.070999999999998,0.0,,22.07,9.1,orange,3.409797307751818
VIESGO,Palencia,Aguilar de Campoo,42.785874,-4.281779,MAZUELAS,76,132.0,0.0,0.0,0.0,0.0,,0.0,0.0,red,3.0
VIESGO,Palencia,Osorno,42.409881,-4.367425,OSORNO,587,12.0,0.12,0.0,3.965,0.0,,4.08,2.9,orange,3.075847129815875
VIESGO,Palencia,Osorno,42.409881,-4.367425,OSORNO,587,30.0,0.0,0.0,12.849,9.35,,22.2,0.0,red,3.4121739130434783
VIESGO,Palencia,Osorno,42.409881,-4.367425,OSORNO,587,132.0,0.0,0.0,0.0,0.0,,0.0,0.0,red,3.0
VIESGO,Palencia,Collazos de Boedo,42.62501,-4.344421,VILLABERMUDO,222,30.0,0.0,0.0,5.62,0.0,,5.62,0.0,red,3.1043478260869564
VIESGO,Palencia,Collazos de Boedo,42.62501,-4.344421,VILLABERMUDO,222,132.0,0.0,0.0,0.0,0.0,,0.0,0.0,red,3.0
VIESGO,Tarragona,La Canonja,41.108522,1.19139,LA CANONJA,10,25.0,66.2,0.0,123.8,0.0,,190.0,34.8,yellow,6.527773479808139
UDF,A Coruña,A Coruña,43.343,-8.397867,EIRIS,2920200082,15.0,7.1449197994,0.0,66.3584642657,0.0,,73.5,9.7,orange,4.364754152531642
UDF,A Coruña,A Coruña,43.366716,-8.402141,EL PUERTO,PUR,15.0,0.0,0.0,93.3611793424,0.0,,93.36,0.0,red,4.733458381724896
UDF,A Coruña,A Coruña,43.342678,-8.429139,LA GRELA 2,GRE,15.0,0.0,0.0,203.6102420336,0.0,,203.61,0.0,red,6.780477958228687
UDF,A Coruña,A Coruña,43.36967,-8.435128,SAN PEDRO DE VISMA,2920200081,15.0,0.0,0.0,61.6329537461,0.0,,61.63,0.0,red,4.144353156356491
UDF,A Coruña,A Coruña,43.36967,-8.435128,SAN PEDRO DE VISMA,2920200081,66.0,0.0,0.0,0.0,0.0,,0.0,0.0,red,3.0
UDF,A Coruña,A Laracha,43.250701,-8.579296,LARACHA,2920200090,15.0,0.0,0.0,22.9800004959,0.0,,22.98,0.0,red,3.4266749279758626
UDF,A Coruña,A Laracha,43.250701,-8.579296,LARACHA,2920200090,20.0,0.0,0.0,12.7100000381,0.0,,12.71,0.0,red,3.235989479277735
UDF,A Coruña,A Laracha,43.250701,-8.579296,LARACHA,2920200090,66.0,0.0,0.0,0.0,0.0,,0.0,0.0,red,3.0
UDF,A Coruña,Arteixo,43.299246,-8.48713,MORAS,2920420308,15.0,0.0,0.0,29.8841144077,17.4,,47.28,0.0,red,3.877934972756305
UDF,A Coruña,Arteixo,43.299246,-8.48713,MORAS,2920420308,66.0,0.0,0.0,0.0,0.0,,0.0,0.0,red,3.0
UDF,A Coruña,Arteixo,43.328412,-8.500741,SABON,SBO,15.0,0.0,0.0,23.2367092932,0.0,,23.24,0.0,red,3.4314412989608543
UDF,A Coruña,Arteixo,43.328412,-8.500741,SABON,SBO,132.0,0.0,0.0,9.0576383562,0.0,,9.06,0.0,red,3.1681752441194493
UDF,A Coruña,As Pontes de García Rodríguez,43.43378,-7.854169,MOURELA,2920200070,20.0,0.0,0.0,26.2600002289,0.0,,26.26,0.0,red,3.487575433617206
UDF,A Coruña,As Pontes de García Rodríguez,43.43378,-7.854169,MOURELA,2920200070,132.0,0.0,0.0,0.0,0.0,,0.0,0.0,red,3.0
UDF,A Coruña,As Somozas,43.538354,-7.922733,SOMOZAS,2920420095,20.0,0.0,0.0,4.2599999905,0.0,,4.26,0.0,red,3.079096394686678
UDF,A Coruña,As Somozas,43.538354,-7.922733,SOMOZAS,2920420095,132.0,0.0,0.0,0.0,0.0,,0.0,0.0,red,3.0
UDF,A Coruña,Bergondo,43.279847,-8.240192,BERGONDO,2920200091,15.0,0.0,0.0,55.4971789288,1.2,,56.7,0.0,red,4.052709495815566
UDF,A Coruña,Bergondo,43.279847,-8.240192,BERGONDO,2920200091,66.0,0.0,0.0,0.0,0.0,,0.0,0.0,red,3.0
UDF,A Coruña,Bergondo,43.324962,-8.211201,PEDRIDO,2920200077,15.0,0.0,0.0,23.3421472487,0.0,,23.34,0.0,red,3.43339898960916
UDF,A Coruña,Bergondo,43.324962,-8.211201,PEDRIDO,2920200077,66.0,0.0,0.0,0.0,0.0,,0.0,0.0,red,3.0
UDF,A Coruña,Bergondo,43.324962,-8.211201,PEDRIDO,2920200077,132.0,0.0,0.0,0.0,0.0,,0.0,0.0,red,3.0
UDF,A Coruña,Boiro,42.669701,-8.871043,BOIRO,2920200085,20.0,0.0,0.0,64.1555066747,0.0,,64.16,0.0,red,4.191189973845583
UDF,A Coruña,Boiro,42.669701,-8.871043,BOIRO,2920200085,66.0,0.0692475982,0.0,0.0,0.0,,0.07,100.0,green,3.0012857360024756
UDF,A Coruña,Cabana de Bergantiños,43.215264,-8.886103,CABANA,2920200093,20.0,0.6927360208,0.0,11.1853279237,0.0,,11.88,5.8,orange,3.2205427314466966
UDF,A Coruña,Cabana de Bergantiños,43.215264,-8.886103,CABANA,2920200093,66.0,5.3777044025,0.0,0.0,0.0,,5.38,100.0,green,3.0998490682809843
UDF,A Coruña,Cabana de Bergantiños,43.16585,-8.925127,CATASOL,2920420309,66.0,10.7219991782,0.0,0.0,0.0,,10.72,100.0,green,3.199077812375677
UDF,A Coruña,Cabanas,43.439657,-8.16585,VILAR DO COLO,2920200098,15.0,0.0,0.0,17.2908726382,0.0,,17.29,0.0,red,3.3210435891356953
UDF,A Coruña,Cabanas,43.439657,-8.16585,VILAR DO COLO,2920200098,132.0,0.0,0.0,0.0,0.0,,0.0,0.0,red,3.0
UDF,A Coruña,Camariñas,43.155886,-9.173311,DO VILAN,2920420123,20.0,0.0,0.0,11.8699998856,0.0,,11.87,0.0,red,3.220393004219712
UDF,A Coruña,Camariñas,43.155886,-9.173311,DO VILAN,2920420123,66.0,12.8432077871,0.0,0.0,0.0,,12.84,100.0,green,3.238462778036825
UDF,A Coruña,Carballo,43.232461,-8.681595,BERTOA,2920420268,15.0,0.0,0.0,23.2600002289,10.534,,33.79,0.0,red,3.627460935706019
UDF,A Coruña,Carballo,43.232461,-8.681595,BERTOA,2920420268,66.0,0.0,0.0,0.0,0.0,,0.0,0.0,red,3.0
UDF,A Coruña,Carballo,43.20509,-8.685078,CARBALLO,2920200072,15.0,0.0,0.0,40.9666665871,0.0,,40.97,0.0,red,3.7606374733795453
UDF,A Coruña,Carballo,43.20509,-8.685078,CARBALLO,2920200072,66.0,0.0,0.0,2.5,0.0,,2.5,0.0,red,3.0464180721027385
UDF,A Coruña,Carral,43.224988,-8.362734,CARRAL,2920420256,15.0,0.0,0.0,7.7629520381,0.0,,7.76,0.0,red,3.144136506973851
UDF,A Coruña,Carral,43.224988,-8.362734,CARRAL,2920420256,66.0,0.0,0.0,0.0,0.0,,0.0,0.0,red,3.0
UDF,A Coruña,Carral,43.16807,-8.35588,MESON DO VENTO,MDV,66.0,0.0,0.0,0.0,0.0,,0.0,0.0,red,3.0
UDF,A Coruña,Cedeira,43.638117,-8.037864,CEDEIRA,2920200097,20.0,0.0,0.0,28.4800000191,0.0,,28.48,0.0,red,3.528794677749033
UDF,A Coruña,Cedeira,43.638117,-8.037864,CEDEIRA,2920200097,132.0,0.0,0.0,0.0,0.0,,0.0,0.0,red,3.0
UDF,A Coruña,Cee,42.947184,-9.170152,PONTELLA,2920200083,20.0,0.0,0.0,37.4214260556,0.0,,37.42,0.0,red,3.694812181134458
UDF,A Coruña,Cee,42.947184,-9.170152,PONTELLA,2920200083,66.0,4.0959137608,0.0,0.0,0.0,,4.1,100.0,green,3.0760497681101655
UDF,A Coruña,Cerceda,43.169134,-8.409553,MEIRAMA,MEI,20.0,0.0,0.0,63.6741100468,0.0,,63.67,0.0,red,4.182251772492032
UDF,A Coruña,Curtis,43.151381,-8.023781,SIDEGASA-TEIXEIRO,SDG,15.0,0.0,0.0,35.1779806151,0.0,,35.18,0.0,red,3.653157616248182
UDF,A Coruña,Curtis,43.151381,-8.023781,SIDEGASA-TEIXEIRO,SDG,66.0,0.0,0.0,24.1095890411,0.0,,24.11,0.0,red,3.4476482569908713
UDF,A Coruña,Fene,43.475015,-8.174203,ASTANO,2920320001,15.0,0.0,0.0,9.6000003815,0.0,,9.6,0.0,red,3.178245403957914
UDF,A Coruña,Fene,43.475015,-8.174203,ASTANO,2920320001,132.0,0.0,0.0,0.0,0.0,,0.0,0.0,red,3.0
UDF,A Coruña,Ferrol,43.468316,-8.320896,PUERTO EXTERIOR FERROL,2920420196,15.0,0.0,0.0,8.370000124,0.0,,8.37,0.0,red,3.1554077077023055
UDF,A Coruña,Ferrol,43.468316,-8.320896,PUERTO EXTERIOR FERROL,2920420196,132.0,0.0,0.0,0.0,0.0,,0.0,0.0,red,3.0
UDF,A Coruña,Ferrol,43.494395,-8.226171,SANTA MARINA,2920200069,15.0,0.0,0.0,47.6966179552,0.0,,47.7,0.0,red,3.885594020520501
UDF,A Coruña,Ferrol,43.494395,-8.226171,SANTA MARINA,2920200069,132.0,0.0,0.0,0.0,0.0,,0.0,0.0,red,3.0
UDF,A Coruña,Mazaricos,42.891769,-9.029769,MAZARICOS,MCO,66.0,10.9235831354,0.0,0.0,0.0,,10.92,100.0,green,3.202820667839703
UDF,A Coruña,Melide,42.912036,-8.034979,MELIDE,2920200092,15.0,0.1846950029,0.0,12.1818084481,0.0,,12.37,1.5,orange,3.2296116995389137
UDF,A Coruña,Melide,42.912036,-8.034979,MELIDE,2920200092,66.0,0.1881817047,0.0,0.0,0.0,,0.19,100.0,green,3.003494012774872
UDF,A Coruña,Monfero,43.405729,-8.044216,EUME,2920200068,15.0,0.0,0.0,5.1075001907,1.0,,6.11,0.0,red,3.113399353687761
UDF,A Coruña,Monfero,43.405729,-8.044216,EUME,2920200068,132.0,0.0,0.0,0.0,0.0,,0.0,0.0,red,3.0
UDF,A Coruña,Muros,42.784989,-9.074206,MUROS,2920420240,20.0,0.8984234435,0.0,7.8699998856,0.0,,8.77,10.2,orange,3.162805322527
UDF,A Coruña,Muros,42.784989,-9.074206,MUROS,2920420240,66.0,3.4934905808,0.0,0.0,0.0,,3.49,100.0,green,3.064864439067925
UDF,A Coruña,Muxía,43.056449,-9.233267,MUXIA,2920420299,66.0,12.1125880798,0.0,1.2799999714,0.0,,13.39,90.4,green,3.248663247121151
UDF,A Coruña,Narón,43.509032,-8.169487,CORNIDO,2920200079,15.0,0.0,0.0,44.9464531264,0.0,,44.95,0.0,red,3.8345310807934396
UDF,A Coruña,Narón,43.509032,-8.169487,CORNIDO,2920200079,132.0,0.0,0.0,0.0,0.0,,0.0,0.0,red,3.0
UDF,A Coruña,Narón,43.513323,-8.163,MEGASA,2920420004,132.0,0.0,0.0,21.8700008392,0.0,,21.87,0.0,red,3.406065310336376
UDF,A Coruña,Narón,43.540663,-8.207865,RIO DO POZO,2920420259,15.0,0.0,0.0,14.6599998474,0.0,,14.66,0.0,red,3.2721955719771003
UDF,A Coruña,Narón,43.540663,-8.207865,RIO DO POZO,2920420259,132.0,0.0,0.0,0.0,0.0,,0.0,0.0,red,3.0
UDF,A Coruña,Negreira,42.91585,-8.735808,NEGREIRA,2920200107,20.0,0.0,0.0,21.903489648,0.0,,21.9,0.0,red,3.4066871047129816
UDF,A Coruña,Negreira,42.91585,-8.735808,NEGREIRA,2920200107,66.0,0.194683248,0.0,15.0,0.0,,15.19,1.3,orange,3.2821231610335757
UDF,A Coruña,Noia,42.832534,-8.845378,TAMBRE II,TAM,20.0,0.0,0.0,19.7020000763,0.0,,19.7,0.0,red,3.3658115440439422
UDF,A Coruña,Noia,42.832534,-8.845378,TAMBRE II,TAM,66.0,2.5557591529,0.0,0.0,0.0,,2.56,100.0,green,3.0474533650546185
UDF,A Coruña,Oleiros,43.309572,-8.348284,SAN MARCOS,2920200080,15.0,0.0,0.0,86.5020031623,0.0,,86.5,0.0,red,4.606102487927588
UDF,A Coruña,Oleiros,43.309572,-8.348284,SAN MARCOS,2920200080,132.0,0.0,0.0,0.0,0.0,,0.0,0.0,red,3.0
UDF,A Coruña,Oroso,42.98151,-8.44499,SIGÜEIRO,2920420190,20.0,0.0,0.0,26.2454396497,0.0,,26.25,0.0,red,3.4873050840111404
UDF,A Coruña,Oroso,42.98151,-8.44499,SIGÜEIRO,2920420190,66.0,0.0,0.0,0.0,0.0,,0.0,0.0,red,3.0
UDF,A Coruña,Ortigueira,43.664767,-7.891472,MERA,2920200084,20.0,0.0,0.0,13.8799996376,0.0,,13.88,0.0,red,3.257713129585641
UDF,A Coruña,Ortigueira,43.664767,-7.891472,MERA,2920200084,132.0,0.0,0.0,0.0,0.0,,0.0,0.0,red,3.0
UDF,A Coruña,Oza-Cesuras,43.136395,-8.155674,CESURAS,2920200094,15.0,0.0,0.0,13.8599996567,0.0,,13.86,0.0,red,3.2573417853634536
UDF,A Coruña,Oza-Cesuras,43.136395,-8.155674,CESURAS,2920200094,66.0,0.0,0.0,0.0,16.5,,16.5,0.0,red,3.306359275878075
UDF,A Coruña,Padrón,42.74163,-8.657377,PADRON,2920200074,20.0,0.0,0.0,41.8524619165,0.0,,41.85,0.0,red,3.7770842379668883
UDF,A Coruña,Padrón,42.74163,-8.657377,PADRON,2920200074,66.0,4.944183014,0.0,0.0,0.0,,4.94,100.0,green,3.091799777453195
UDF,A Coruña,Porto do Son,42.726409,-8.985866,PORTO DO SON,2920200095,20.0,0.0,0.0,10.9699997902,0.0,,10.97,0.0,red,3.2036824964914126
UDF,A Coruña,Porto do Son,42.726409,-8.985866,PORTO DO SON,2920200095,66.0,0.4161776071,0.0,0.0,0.0,,0.42,100.0,green,3.0077272648695654
UDF,A Coruña,Ribeira,42.575841,-8.970776,PALMEIRA,2920200075,20.0,0.0,0.0,61.0667990656,0.0,,61.07,0.0,red,4.1338412328441905
UDF,A Coruña,Ribeira,42.575841,-8.970776,PALMEIRA,2920200075,66.0,0.4815392376,0.0,0.0,0.0,,0.48,100.0,green,3.008940849220486
UDF,A Coruña,Rois,42.787603,-8.737905,ROIS,2920420059,66.0,0.5241287449,0.0,0.0,0.0,,0.52,100.0,green,3.0097316183487544
UDF,A Coruña,Sada,43.350865,-8.308198,SADA,2920200109,15.0,0.0,0.0,30.6196440582,1.0,,31.62,0.0,red,3.587089167102584
UDF,A Coruña,Sada,43.350865,-8.308198,SADA,2920200109,132.0,0.0,0.0,0.0,0.0,,0.0,0.0,red,3.0
UDF,A Coruña,San Sadurniño,43.474492,-8.039241,P.E. FORGOSELO,2920420056,132.0,0.0,0.0,0.0700000003,0.0,,0.07,0.0,red,3.001299706024447
UDF,A Coruña,Santa Comba,43.096952,-8.774493,BOAÑA,2920420062,66.0,0.1874785561,0.0,0.0,0.0,,0.19,100.0,green,3.003480957253907
UDF,A Coruña,Santa Comba,43.026453,-8.792462,SANTA COMBA,2920420271,66.0,0.2196506803,0.0,0.0,0.0,,0.22,100.0,green,3.0040783044462325
UDF,A Coruña,Santiago de Compostela,42.91449,-8.494581,FORMARIS,2920420341,20.0,0.0,0.0,23.0431693341,0.0,,23.04,0.0,red,3.4278477982503484
UDF,A Coruña,Santiago de Compostela,42.91449,-8.494581,FORMARIS,2920420341,66.0,0.4938012405,0.0,0.0,0.0,,0.49,100.0,green,3.0091685206343803
UDF,A Coruña,Santiago de Compostela,42.891558,-8.531846,SAN CAYETANO,CAY,20.0,6.7522640433,0.0,83.2413465883,0.0,,89.99,7.5,orange,4.670931962833359
UDF,A Coruña,Santiago de Compostela,42.854809,-8.578342,SANTIAGO,SCM,20.0,6.9530124917,0.0,119.9129235471,15.27713,,142.14,4.9,orange,5.639202835317345
UDF,A Coruña,Santiago de Compostela,42.854809,-8.578342,SANTIAGO,SCM,66.0,0.5010098044,0.0,0.0,0.0,,0.5,100.0,green,3.0093023636899274
UDF,A Coruña,Vimianzo,43.10117,-9.048348,VIMIANZO,VIM,20.0,0.0,0.0,31.2699996758,0.0,,31.27,0.0,red,3.58059723984156
UDF,A Coruña,Vimianzo,43.10117,-9.048348,VIMIANZO,VIM,66.0,13.574449492,0.0,0.0,0.0,,13.57,100.0,green,3.2520399101098563
UDF,Asturias,Tineo,43.292025,-6.395355,C.T. NARCEA,NRC,132.0,0.0,0.0,0.0,0.0,,0.0,0.0,red,3.0
UDF,Ávila,El Tiemblo,40.426575,-4.525014,C.H.BURGUILLO,3020410021,132.0,1.8922061958,0.0,0.0,0.0,,1.89,100.0,green,3.0351330254519575
UDF,Ávila,El Tiemblo,40.412937,-4.441646,C.H.PUENTENUEVO,3020410015,132.0,3.1974453939,0.0,0.0,0.0,,3.2,100.0,green,3.059367700335448
UDF,Barcelona,El Prat de Llobregat,41.312929,2.131268,ZAL,ZAL,25.0,20.0,0.0,29.0,0.0,,49.0,40.8,yellow,3.909794213213678
UDF,Ciudad Real,Abenójar,38.889703,-4.355794,ABENOJAR,3020100062,15.0,0.0,0.0,3.4042322735,0.0,,3.4,0.0,red,3.063207159650317
UDF,Ciudad Real,Abenójar,38.889703,-4.355794,ABENOJAR,3020100062,45.0,1.9168574025,0.0,14.0,5.0,,20.92,9.2,orange,3.3883680780287793
UDF,Ciudad Real,Abenójar,38.889703,-4.355794,ABENOJAR,3020100062,132.0,3.9954888624,0.0,0.0,0.0,,4.0,100.0,green,3.074185156040229
UDF,Ciudad Real,Alcázar de San Juan,39.379509,-3.215182,ALCAZAR 1,3020100063,15.0,0.0,0.0,32.4996635646,20.0,,52.5,0.0,red,3.97477326748445
UDF,Ciudad Real,Alcázar de San Juan,39.379509,-3.215182,ALCAZAR 1,3020100063,45.0,0.6091163378,0.0,0.0,0.0,,0.61,100.0,green,3.0113096024347827
UDF,Ciudad Real,Alcázar de San Juan,39.379509,-3.215182,ALCAZAR 1,3020100063,132.0,0.6770323848,0.0,0.0,18.0,,18.68,3.6,orange,3.3467807343611327
UDF,Ciudad Real,Alcázar de San Juan,39.411595,-3.228668,ALCAZAR 2,3020100064,15.0,0.0,0.0,19.7700841622,0.0,,19.77,0.0,red,3.3670756768472847
UDF,Ciudad Real,Alcázar de San Juan,39.411595,-3.228668,ALCAZAR 2,3020100064,45.0,0.6824019354,0.0,0.0,0.0,,0.68,100.0,green,3.0126703128961783
UDF,Ciudad Real,Alcázar de San Juan,39.17688,-3.231913,CINCO CASAS,3020100074,15.0,0.0,0.0,21.0626884372,0.0,,21.06,0.0,red,3.391075756222188
UDF,Ciudad Real,Alcázar de San Juan,39.17688,-3.231913,CINCO CASAS,3020100074,45.0,0.5809124149,0.0,0.0,0.0,,0.58,100.0,green,3.010785933744082
UDF,Ciudad Real,Alcázar de San Juan,39.17688,-3.231913,CINCO CASAS,3020100074,132.0,1.4689448758,0.0,0.0,0.0,,1.47,100.0,green,3.027274235663933
UDF,Ciudad Real,Alcázar de San Juan,39.296243,-3.36093,MARAÑON,3020310008,15.0,0.0,0.0,3.394278506,0.0,,3.39,0.0,red,3.0630223457713135
UDF,Ciudad Real,Alcázar de San Juan,39.296243,-3.36093,MARAÑON,3020310008,45.0,0.5882880737,0.0,0.0,0.0,,0.59,100.0,green,3.010922879288875
UDF,Ciudad Real,Alhambra,38.858354,-3.158657,EL CUBO,3020100078,15.0,0.0,0.0,2.2523774493,0.0,,2.25,0.0,red,3.041820407537676
UDF,Ciudad Real,Alhambra,38.858354,-3.158657,EL CUBO,3020100078,45.0,0.4501625896,0.0,0.0,0.0,,0.45,100.0,green,3.008358271816803
UDF,Ciudad Real,Alhambra,38.873326,-3.169676,P.E. ALHAMBRA,3020410260,45.0,0.4448208109,0.0,0.0,0.0,,0.44,100.0,green,3.008259089789262
UDF,Ciudad Real,Alhambra,38.873326,-3.169676,P.E. ALHAMBRA,3020410260,132.0,0.4261663896,0.0,0.0,0.0,,0.43,100.0,green,3.0079127288800867
UDF,Ciudad Real,Almadén,38.770368,-4.838598,ALMADEN,3020100065,15.0,0.8123030103,0.0,6.0420148374,0.0,,6.85,11.9,orange,3.1272656880278507
UDF,Ciudad Real,Almadén,38.770368,-4.838598,ALMADEN,3020100065,45.0,1.1887679058,0.0,0.0,0.0,,1.19,100.0,green,3.0220721257459386
UDF,Ciudad Real,Almagro,38.891032,-3.720849,ALMAGRO,3020100066,15.0,0.0,0.0,28.054167172,0.0,,28.05,0.0,red,3.520888141828872
UDF,Ciudad Real,Almagro,38.891032,-3.720849,ALMAGRO,3020100066,45.0,1.0225503445,0.0,0.0,0.0,,1.02,100.0,green,3.0189859262478724
UDF,Ciudad Real,Almodóvar del Campo,38.717407,-4.170973,ALMODOVAR DEL CAMPO,3020410261,45.0,2.4751509122,0.0,0.0,0.0,,2.48,100.0,green,3.0459566934030637
UDF,Ciudad Real,Almodóvar del Campo,38.471967,-4.474992,LA GARGANTA,3020100086,15.0,0.0,0.0,3.129653741,0.0,,3.13,0.0,red,3.0581089972025377
UDF,Ciudad Real,Almodóvar del Campo,38.471967,-4.474992,LA GARGANTA,3020100086,45.0,0.0,0.0,0.0,0.0,,0.0,0.0,red,3.0
UDF,Ciudad Real,Almuradiel,38.519187,-3.493303,ALMURADIEL,3020100114,15.0,0.0,0.0,7.7086156299,0.0,,7.71,0.0,red,3.1431276304483986
UDF,Ciudad Real,Almuradiel,38.519187,-3.493303,ALMURADIEL,3020100114,45.0,0.1798679222,0.0,0.0,0.0,,0.18,100.0,green,3.0033396488726596
UDF,Ciudad Real,Argamasilla de Alba,39.137622,-3.07445,ARGAMASILLA DE ALBA,3020100067,15.0,0.0,0.0,26.052061356,0.0,,26.05,0.0,red,3.483714584979112
UDF,Ciudad Real,Argamasilla de Alba,39.137622,-3.07445,ARGAMASILLA DE ALBA,3020100067,45.0,0.0635836847,0.0,0.0,5.0,,5.06,1.3,orange,3.0940167170298625
UDF,Ciudad Real,Argamasilla de Calatrava,38.714382,-4.090306,ARGAMASILLA DE CALATRAVA,3020100068,15.0,0.0,0.0,35.4010396849,0.0,,35.4,0.0,red,3.65729920504224
UDF,Ciudad Real,Argamasilla de Calatrava,38.714382,-4.090306,ARGAMASILLA DE CALATRAVA,3020100068,45.0,2.4585308912,0.0,0.0,0.0,,2.46,100.0,green,3.045648105669813
UDF,Ciudad Real,Argamasilla de Calatrava,38.714382,-4.090306,ARGAMASILLA DE CALATRAVA,3020100068,132.0,2.8079637157,0.0,0.0,0.0,,2.81,100.0,green,3.0521361048868947
UDF,Ciudad Real,Calzada de Calatrava,38.703019,-3.769386,CALZADA DE CALATRAVA,3020100070,15.0,0.0,0.0,10.0136189785,0.0,,10.01,0.0,red,3.185925155101346
UDF,Ciudad Real,Calzada de Calatrava,38.703019,-3.769386,CALZADA DE CALATRAVA,3020100070,45.0,0.9501655698,0.0,0.0,0.0,,0.95,100.0,green,3.0176419415714064
UDF,Ciudad Real,Campo de Criptana,39.393137,-3.110074,CAMPO DE CRIPTANA,3020100071,15.0,0.0,0.0,19.1889339838,0.0,,19.19,0.0,red,3.3562853284938883
UDF,Ciudad Real,Campo de Criptana,39.393137,-3.110074,CAMPO DE CRIPTANA,3020100071,45.0,0.2705428754,0.0,0.0,0.0,,0.27,100.0,green,3.0050232314788796
UDF,Ciudad Real,Ciudad Real,38.876636,-3.982483,AEROPUERTO CIUDAD REAL,3020410479,15.0,0.0,0.0,9.9221598707,0.0,,9.92,0.0,red,3.184227012917221
UDF,Ciudad Real,Ciudad Real,38.876636,-3.982483,AEROPUERTO CIUDAD REAL,3020410479,45.0,2.0330027275,0.0,0.0,0.0,,2.03,100.0,green,3.0377472268760637
UDF,Ciudad Real,Ciudad Real,38.948045,-3.96173,ALARCOS,ARO,45.0,2.1944068467,0.0,0.0,0.0,,2.19,100.0,green,3.0407440540931456
UDF,Ciudad Real,Ciudad Real,38.948045,-3.96173,ALARCOS,ARO,132.0,3.5829190916,0.0,0.0,0.0,,3.58,100.0,green,3.066524878692867
UDF,Ciudad Real,Ciudad Real,39.004388,-3.931465,PUERTA DE TOLEDO,3020100182,15.0,0.0,0.0,37.1405676155,0.0,,37.14,0.0,red,3.689597418205168
UDF,Ciudad Real,Ciudad Real,39.004388,-3.931465,PUERTA DE TOLEDO,3020100182,45.0,0.3103876543,0.0,0.0,0.0,,0.31,100.0,green,3.005763038606839
UDF,Ciudad Real,Ciudad Real,38.976251,-3.919939,SANTA TERESA,3020100106,15.0,0.0,0.0,92.4431877558,2.2,,94.64,0.0,red,4.757261725312703
UDF,Ciudad Real,Ciudad Real,38.976251,-3.919939,SANTA TERESA,3020100106,132.0,3.3918538202,0.0,0.0,0.0,,3.39,100.0,green,3.062977326075197
UDF,Ciudad Real,Daimiel,39.072588,-3.621605,DAIMIEL,3020100060,15.0,0.3025253135,0.0,7.6772506174,0.0,,7.98,3.8,orange,3.148162325809686
UDF,Ciudad Real,Daimiel,39.072588,-3.621605,DAIMIEL,3020100060,45.0,1.1010532379,0.0,0.0,0.0,,1.1,100.0,green,3.0204435074343183
UDF,Ciudad Real,Daimiel,39.070825,-3.595181,DAIMIEL 2,3020410208,15.0,0.0,0.0,51.9517772628,0.0,,51.95,0.0,red,3.964600537140028
UDF,Ciudad Real,Daimiel,39.070825,-3.595181,DAIMIEL 2,3020410208,132.0,1.718573694,0.0,0.0,0.0,,1.72,100.0,green,3.0319091510567846
UDF,Ciudad Real,El Robledo,39.218493,-4.28842,EL ROBLEDO,3020100079,15.0,0.0,0.0,10.2072186956,0.0,,10.21,0.0,red,3.1895197653523133
UDF,Ciudad Real,El Robledo,39.218493,-4.28842,EL ROBLEDO,3020100079,45.0,0.1061324321,0.0,0.0,0.0,,0.11,100.0,green,3.001970585154263
UDF,Ciudad Real,Herencia,39.171099,-3.392071,HERENCIA,3020100083,15.0,0.0,0.0,14.6997203311,20.0,,34.7,0.0,red,3.6442776481095467
UDF,Ciudad Real,Herencia,39.171099,-3.392071,HERENCIA,3020100083,45.0,0.0679625728,0.0,0.0,5.0,,5.07,1.3,orange,3.0940980208472846
UDF,Ciudad Real,La Solana,38.930742,-3.245284,LA SOLANA,3020300115,15.0,0.0,0.0,22.0854903329,0.0,,22.09,0.0,red,3.410066353078756
UDF,Ciudad Real,La Solana,38.930742,-3.245284,LA SOLANA,3020300115,45.0,1.0901679395,0.0,0.0,0.0,,1.09,100.0,green,3.020241397607922
UDF,Ciudad Real,Llanos del Caudillo,39.11231,-3.318865,HERRERA DE LA MANCHA,3020100084,15.0,0.0,0.0,13.163579485,0.0,,13.16,0.0,red,3.2444111926659445
UDF,Ciudad Real,Llanos del Caudillo,39.11231,-3.318865,HERRERA DE LA MANCHA,3020100084,45.0,0.1214793561,0.0,0.0,5.0,,5.12,2.4,orange,3.095091679209655
UDF,Ciudad Real,Malagón,39.169711,-3.864489,MALAGON,3020100061,15.0,0.0,0.0,22.2864837943,0.0,,22.29,0.0,red,3.413798244672134
UDF,Ciudad Real,Malagón,39.169711,-3.864489,MALAGON,3020100061,45.0,0.1207337846,0.0,0.0,0.0,,0.12,100.0,green,3.00224169180752
UDF,Ciudad Real,Manzanares,39.020507,-3.374567,LA PALOMA,PAO,15.0,0.0,0.0,49.5149910949,1.51,,51.02,0.0,red,3.9473926862738664
UDF,Ciudad Real,Manzanares,39.020507,-3.374567,LA PALOMA,PAO,45.0,1.3245275888,0.0,0.0,0.0,,1.32,100.0,green,3.024592806847594
UDF,Ciudad Real,Manzanares,39.020507,-3.374567,LA PALOMA,PAO,132.0,1.3988415996,0.0,0.0,0.0,,1.4,100.0,green,3.0259726120922172
UDF,Ciudad Real,Moral de Calatrava,38.819359,-3.552726,MORAL DE CALATRAVA,3020410843,15.0,0.0,0.0,12.4157651061,5.0,,17.42,0.0,red,3.323362496167724
UDF,Ciudad Real,Moral de Calatrava,38.819359,-3.552726,MORAL DE CALATRAVA,3020410843,132.0,1.1683749261,0.0,0.0,0.0,,1.17,100.0,green,3.021693484625097
UDF,Ciudad Real,Pedro Muñoz,39.401441,-2.954532,PEDRO MUÑOZ,3020100090,15.0,0.2068390294,0.0,6.2510466842,0.0,,6.46,3.2,orange,3.1199050418740524
UDF,Ciudad Real,Pedro Muñoz,39.401441,-2.954532,PEDRO MUÑOZ,3020100090,45.0,0.2508240977,0.0,0.0,0.0,,0.25,100.0,green,3.004657108420857
UDF,Ciudad Real,Piedrabuena,39.032795,-4.182829,PIEDRABUENA,3020100093,15.0,0.0,0.0,19.1585490448,0.0,,19.16,0.0,red,3.355721164378153
UDF,Ciudad Real,Piedrabuena,39.032795,-4.182829,PIEDRABUENA,3020100093,45.0,0.1655347,0.0,0.0,0.0,,0.17,100.0,green,3.003073520656042
UDF,Ciudad Real,Puebla del Príncipe,38.565625,-2.921402,PUEBLA DEL PRINCIPE,3020100094,15.0,0.0,0.0,16.5234671777,0.0,,16.52,0.0,red,3.3067949963366856
UDF,Ciudad Real,Puebla del Príncipe,38.565625,-2.921402,PUEBLA DEL PRINCIPE,3020100094,45.0,0.1588447765,0.0,0.0,0.0,,0.16,100.0,green,3.0029493073154883
UDF,Ciudad Real,Puertollano,38.679345,-4.119269,CALATRAVA,3020100069,15.0,0.0,0.0,16.7922218669,0.0,,16.79,0.0,red,3.3117850261531796
UDF,Ciudad Real,Puertollano,38.678959,-4.144134,COSTANILLA,NAV,15.0,0.0,0.0,27.4081195581,0.0,,27.41,0.0,red,3.508892827939347
UDF,Ciudad Real,Puertollano,38.678959,-4.144134,COSTANILLA,NAV,45.0,0.0,0.0,78.2931506849,0.0,,78.29,0.0,red,4.453686845456909
UDF,Ciudad Real,Retuerta del Bullaque,39.422734,-4.237387,RETUERTA DEL BULLAQUE,3020310127,15.0,0.0,0.0,1.3139142795,0.0,,1.31,0.0,red,3.0243957471050598
UDF,Ciudad Real,Retuerta del Bullaque,39.422734,-4.237387,RETUERTA DEL BULLAQUE,3020310127,45.0,0.1067910117,0.0,0.0,0.0,,0.11,100.0,green,3.001982813152406
UDF,Ciudad Real,Santa Cruz de Mudela,38.646612,-3.461864,STA.CRUZ DE MUDELA,3020100109,15.0,0.0,0.0,18.9239205568,5.0,,23.92,0.0,red,3.4442009077542934
UDF,Ciudad Real,Santa Cruz de Mudela,38.646612,-3.461864,STA.CRUZ DE MUDELA,3020100109,45.0,0.1793581416,0.0,10.0931506849,0.0,,10.27,1.7,orange,3.1907320221537985
UDF,Ciudad Real,Socuéllamos,39.298009,-2.801591,SOCUELLAMOS,3020100108,15.0,0.0,0.0,29.4471772435,0.0,,29.45,0.0,red,3.5467524786043634
UDF,Ciudad Real,Socuéllamos,39.298009,-2.801591,SOCUELLAMOS,3020100108,45.0,0.2318208412,0.0,0.0,0.0,,0.23,100.0,green,3.0043042706086958
UDF,Ciudad Real,Tomelloso,39.220282,-2.995435,RIEGA,3020100105,15.0,0.0,0.0,9.5553382807,0.0,,9.56,0.0,red,3.1774161525118365
UDF,Ciudad Real,Tomelloso,39.220282,-2.995435,RIEGA,3020100105,45.0,0.0516773551,0.0,0.0,0.0,,0.05,100.0,green,3.0009595052780442
UDF,Ciudad Real,Tomelloso,39.176417,-3.02611,TOMELLOSO,3020410350,15.0,0.0,0.0,36.6565804989,4.125,,40.78,0.0,red,3.7572009376246323
UDF,Ciudad Real,Tomelloso,39.176417,-3.02611,TOMELLOSO,3020410350,45.0,0.0480212753,0.0,0.0,0.0,,0.05,100.0,green,3.000891622007736
UDF,Ciudad Real,Valdepeñas,38.756539,-3.395344,VALDEPEÑAS,3020300113,15.0,0.0,0.0,46.8223407469,2.0,,48.82,0.0,red,3.906495573205632
UDF,Ciudad Real,Valdepeñas,38.756539,-3.395344,VALDEPEÑAS,3020300113,45.0,1.4731504287,0.0,0.0,40.0,,41.47,3.6,orange,3.7700414747708493
UDF,Ciudad Real,Valdepeñas,38.756539,-3.395344,VALDEPEÑAS,3020300113,132.0,1.1850631173,0.0,4.1780821918,0.0,,5.36,22.1,orange,3.0995787462621074
UDF,Ciudad Real,Villahermosa,38.752076,-2.846329,VILLAHERMOSA,3020410904,15.0,0.0,0.0,3.6033101155,0.0,,3.6,0.0,red,3.0669034834999227
UDF,Ciudad Real,Villahermosa,38.752076,-2.846329,VILLAHERMOSA,3020410904,45.0,0.4483081241,0.0,0.0,0.0,,0.45,100.0,green,3.008323839531487
UDF,Ciudad Real,Villanueva de los Infantes,38.744418,-3.012899,VILLANUEVA DE LOS INFANTES,3020100112,15.0,0.4593392632,0.0,7.3957443056,4.0,,11.86,3.9,orange,3.2201160495522205
UDF,Ciudad Real,Villanueva de los Infantes,38.744418,-3.012899,VILLANUEVA DE LOS INFANTES,3020100112,45.0,0.4599635752,0.0,0.0,0.0,,0.46,100.0,green,3.008540248959307
UDF,Ciudad Real,Villarrubia de los Ojos,39.209577,-3.598857,VILLARRUBIA DE LOS OJOS,3020410484,15.0,0.0,0.0,23.1849423457,0.0,,23.18,0.0,red,3.4304801302002166
UDF,Ciudad Real,Villarrubia de los Ojos,39.209577,-3.598857,VILLARRUBIA DE LOS OJOS,3020410484,45.0,0.0386183337,0.0,0.0,0.0,,0.04,100.0,green,3.0007170354392696
UDF,Cuenca,Buendía,40.399479,-2.786198,C.H.BUENDIA,3020410008,132.0,0.0,0.0,0.0,0.0,,0.0,0.0,red,3.0
UDF,Cuenca,Campillos-Sierra,40.072014,-1.674173,CAMPILLOS,3020410352,15.0,0.0,0.0,2.1599954345,0.0,,2.16,0.0,red,3.040105129528083
UDF,Cuenca,Campillos-Sierra,40.072014,-1.674173,CAMPILLOS,3020410352,66.0,0.0,0.0,0.0,0.0,,0.0,0.0,red,3.0
UDF,Cuenca,Cañete,40.041689,-1.644279,CAÑETE,3020100171,15.0,0.0,0.0,1.3238681657,0.0,,1.32,0.0,red,3.0245805631879934
UDF,Cuenca,Cañete,40.041689,-1.644279,CAÑETE,3020100171,66.0,0.0,0.0,0.0,0.0,,0.0,0.0,red,3.0
UDF,Cuenca,Cuenca,40.0777,-2.138928,CUENCA,3020100122,20.0,0.0,0.0,25.3949183184,0.0,,25.39,0.0,red,3.47151325981866
UDF,Cuenca,Cuenca,40.0777,-2.138928,CUENCA,3020100122,66.0,0.0,0.0,0.0,0.0,,0.0,0.0,red,3.0
UDF,Cuenca,Cuenca,40.0777,-2.138928,CUENCA,3020100122,132.0,0.0,0.0,0.0,0.0,,0.0,0.0,red,3.0
UDF,Cuenca,Landete,39.904653,-1.376405,LANDETE,3020100123,15.0,0.0,0.0,4.702714186,0.0,,4.7,0.0,red,3.087316370465728
UDF,Cuenca,Landete,39.904653,-1.376405,LANDETE,3020100123,66.0,0.0,0.0,0.0,0.0,,0.0,0.0,red,3.0
UDF,Cuenca,Olmeda de la Cuesta,40.313193,-2.480125,OLMEDA DE LA CUESTA,3020100124,15.0,0.0,0.0,12.2953570483,0.0,,12.3,0.0,red,3.228290707998762
UDF,Cuenca,Olmeda de la Cuesta,40.313193,-2.480125,OLMEDA DE LA CUESTA,3020100124,66.0,0.0,0.0,0.0,0.0,,0.0,0.0,red,3.0
UDF,Cuenca,Villalba de la Sierra,40.237989,-2.074298,C.H.VILLALBA DE LA SIERRA,3020100163,15.0,0.0,0.0,3.0160303569,0.0,,3.02,0.0,red,3.055999325828253
UDF,Cuenca,Villalba de la Sierra,40.237989,-2.074298,C.H.VILLALBA DE LA SIERRA,3020100163,66.0,0.0,0.0,0.0,0.0,,0.0,0.0,red,3.0
UDF,Guadalajara,Almoguera,40.266638,-2.967757,C.H.ALMOGUERA,3020100157,15.0,0.0,0.0,5.0565789386,0.0,,5.06,0.0,red,3.09388665830605
UDF,Guadalajara,Almoguera,40.266638,-2.967757,C.H.ALMOGUERA,3020100157,45.0,0.0,0.0,0.0,0.0,,0.0,0.0,red,3.0
UDF,Guadalajara,Almonacid de Zorita,40.364343,-2.829316,BOLARQUE,BLQ,15.0,0.0,0.0,7.3505787699,0.0,,7.35,0.0,red,3.136479878135231
UDF,Guadalajara,Almonacid de Zorita,40.364343,-2.829316,BOLARQUE,BLQ,45.0,0.0,0.0,0.0,0.0,,0.0,0.0,red,3.0
UDF,Guadalajara,Almonacid de Zorita,40.364343,-2.829316,BOLARQUE,BLQ,66.0,0.0,0.0,0.0,0.0,,0.0,0.0,red,3.0
UDF,Guadalajara,Almonacid de Zorita,40.364343,-2.829316,BOLARQUE,BLQ,132.0,0.0,0.0,0.0,0.0,,0.0,0.0,red,3.0
UDF,Guadalajara,Almonacid de Zorita,40.247784,-2.833598,ILLANA (LA BUJEDA),3020100126,15.0,0.0,0.0,0.5171023662,0.0,,0.52,0.0,red,3.0096011579675075
UDF,Guadalajara,Almonacid de Zorita,40.247784,-2.833598,ILLANA (LA BUJEDA),3020100126,45.0,0.0,0.0,0.0,0.0,,0.0,0.0,red,3.0
UDF,Guadalajara,Almonacid de Zorita,40.349548,-2.885773,JOSÉ CABRERA,JCB,45.0,0.0,0.0,0.2399999946,0.0,,0.24,0.0,red,3.0044561348216
UDF,Guadalajara,Auñón,40.493032,-2.7503,C.H.ENTREPEÑAS,3020100159,15.0,0.0,0.0,7.3338480621,0.0,,7.33,0.0,red,3.1361692352548354
UDF,Guadalajara,Auñón,40.493032,-2.7503,C.H.ENTREPEÑAS,3020100159,45.0,0.0,0.0,0.0,0.0,,0.0,0.0,red,3.0
UDF,Guadalajara,Auñón,40.493032,-2.7503,C.H.ENTREPEÑAS,3020100159,132.0,0.0,0.0,0.0,0.0,,0.0,0.0,red,3.0
UDF,Guadalajara,Brihuega,40.725277,-2.876514,BRIHUEGA,3020100125,15.0,0.0,0.0,6.1371366687,0.0,,6.14,0.0,red,3.113949620956831
UDF,Guadalajara,Brihuega,40.725277,-2.876514,BRIHUEGA,3020100125,45.0,0.0,0.0,0.0,0.0,,0.0,0.0,red,3.0
UDF,Guadalajara,Chiloeches,40.574258,-3.200135,CHILOECHES,3020410580,15.0,0.0,0.0,41.2976326232,0.0,,41.3,0.0,red,3.766782595510444
UDF,Guadalajara,Chiloeches,40.574258,-3.200135,CHILOECHES,3020410580,132.0,0.0,0.0,0.0,0.0,,0.0,0.0,red,3.0
UDF,Guadalajara,Cifuentes,40.786455,-2.629057,CIFUENTES,3020100162,15.0,0.0,0.0,7.0511893635,0.0,,7.05,0.0,red,3.1309210465140027
UDF,Guadalajara,Cifuentes,40.786455,-2.629057,CIFUENTES,3020100162,66.0,0.0,0.0,0.0,0.0,,0.0,0.0,red,3.0
UDF,Guadalajara,Cifuentes,40.786455,-2.629057,CIFUENTES,3020100162,132.0,0.0,0.0,0.0,0.0,,0.0,0.0,red,3.0
UDF,Guadalajara,El Olivar,40.589754,-2.752059,EL OLIVAR,3020420418,132.0,0.0,0.0,0.0,0.0,,0.0,0.0,red,3.0
UDF,Guadalajara,Fuentenovilla,40.372627,-3.091341,FUENTENOVILLA,3020100169,15.0,0.0,0.0,6.8013079374,0.0,,6.8,0.0,red,3.126281440892465
UDF,Guadalajara,Fuentenovilla,40.372627,-3.091341,FUENTENOVILLA,3020100169,45.0,0.0,0.0,0.0,0.0,,0.0,0.0,red,3.0
UDF,Guadalajara,Guadalajara,40.618505,-3.160491,FUENTE LA NIÑA,3020410814,15.0,0.0,0.0,75.4130446316,0.0,,75.41,0.0,red,4.400211257278663
UDF,Guadalajara,Guadalajara,40.618505,-3.160491,FUENTE LA NIÑA,3020410814,132.0,0.0,0.0,0.0,0.0,,0.0,0.0,red,3.0
UDF,Guadalajara,Guadalajara,40.636708,-3.177374,GUADALAJARA,3020100161,15.0,0.0,0.0,54.8306580703,0.0,,54.83,0.0,red,4.018053375899118
UDF,Guadalajara,Guadalajara,40.636708,-3.177374,GUADALAJARA,3020100161,45.0,0.0,0.0,0.0,0.0,,0.0,0.0,red,3.0
UDF,Guadalajara,Guadalajara,40.636708,-3.177374,GUADALAJARA,3020100161,132.0,0.0,0.0,0.0,0.0,,0.0,0.0,red,3.0
UDF,Guadalajara,Maranchón,41.046887,-2.216197,MARANCHON,3020300117,15.0,0.0,0.0,3.8121483976,0.0,,3.81,0.0,red,3.0707810316744544
UDF,Guadalajara,Maranchón,41.046887,-2.216197,MARANCHON,3020300117,66.0,0.0,0.0,0.0,0.0,,0.0,0.0,red,3.0
UDF,Guadalajara,Molina de Aragón,40.837764,-1.882878,MOLINA DE ARAGON,3020300118,15.0,0.0,0.0,7.2011417502,0.0,,7.2,0.0,red,3.13370524679313
UDF,Guadalajara,Molina de Aragón,40.837764,-1.882878,MOLINA DE ARAGON,3020300118,66.0,0.0,0.0,0.0,0.0,,0.0,0.0,red,3.0
UDF,Guadalajara,Yebes,40.590766,-3.122997,ALCOHETE,3020410351,15.0,0.0,0.0,45.4792854987,0.0,,45.48,0.0,red,3.8444243013838775
UDF,Guadalajara,Yebes,40.590766,-3.122997,ALCOHETE,3020410351,45.0,0.0,0.0,0.0,15.0,,15.0,0.0,red,3.278508432616432
UDF,Guadalajara,Zorita de los Canes,40.339059,-2.898955,C.H.ZORITA,3020100177,45.0,0.0,0.0,5.0499999523,0.0,,5.05,0.0,red,3.093764504761875
UDF,León,Astorga,42.464121,-6.054956,ASTORGA,3020100009,15.0,2.3570790052,0.0,12.908000267,1.0,,16.27,14.5,orange,3.301997448965496
UDF,León,Astorga,42.464121,-6.054956,ASTORGA,3020100009,45.0,2.3842743533,0.0,0.0,0.0,,2.38,100.0,green,3.044269367537676
UDF,León,Astorga,42.464121,-6.054956,ASTORGA,3020100009,132.0,2.6590188548,0.0,0.0,0.0,,2.66,100.0,green,3.0493706115698593
UDF,León,Bembibre,42.620226,-6.465158,PIBASA,3020310006,15.0,0.0,0.0,16.3674192674,0.0,,16.37,0.0,red,3.303897619075971
UDF,León,Bembibre,42.620226,-6.465158,PIBASA,3020310006,45.0,0.1204158267,0.0,0.0,0.0,,0.12,100.0,green,3.0022357882104287
UDF,León,Benuza,42.4158,-6.670709,SANTALAVILLA,3020410336,15.0,0.0,0.0,6.7899999619,0.0,,6.79,0.0,red,3.126071483123627
UDF,León,Benuza,42.4158,-6.670709,SANTALAVILLA,3020410336,45.0,2.6148489896,0.0,0.0,0.0,,2.61,100.0,green,3.0485504995748105
UDF,León,Borrenes,42.48998,-6.756061,CARUCEDO,3020300109,15.0,1.4236356338,0.0,5.3600000668,0.0,,6.78,21.0,orange,3.1259533164276654
UDF,León,Borrenes,42.48998,-6.756061,CARUCEDO,3020300109,45.0,3.2314255812,0.0,0.0,0.0,,3.23,100.0,green,3.0599986182491103
UDF,León,Borrenes,42.48998,-6.756061,CARUCEDO,3020300109,132.0,11.4881509434,0.0,0.0,0.0,,11.49,100.0,green,3.213303127527155
UDF,León,Carracedelo,42.563044,-6.761347,VILLAMARTIN,3020410088,45.0,0.7980732644,0.0,0.0,0.0,,0.8,100.0,green,3.014818008932075
UDF,León,Cimanes del Tejar,42.611847,-5.803294,C.H.CIMANES DEL TEJAR,3020100048,15.0,0.0,0.0,6.2300000191,0.0,,6.23,0.0,red,3.115673836034659
UDF,León,Cimanes del Tejar,42.611847,-5.803294,C.H.CIMANES DEL TEJAR,3020100048,45.0,0.0,0.0,0.0,0.0,,0.0,0.0,red,3.0
UDF,León,Cubillos del Sil,42.617507,-6.601071,CUBILLOS DEL SIL,3020410444,15.0,0.0,0.0,6.4427501717,0.0,,6.44,0.0,red,3.119624016803961
UDF,León,Cubillos del Sil,42.617507,-6.601071,CUBILLOS DEL SIL,3020410444,45.0,0.5607449778,0.0,0.0,0.0,,0.56,100.0,green,3.0104114803243074
UDF,León,Encinedo,42.277967,-6.562513,ENCINEDO,3020300097,15.0,0.0,0.0,6.5999999046,0.0,,6.6,0.0,red,3.1225437085799164
UDF,León,Encinedo,42.277967,-6.562513,ENCINEDO,3020300097,45.0,1.0429620219,0.0,0.0,0.0,,1.04,100.0,green,3.019364914533189
UDF,León,Fabero,42.761714,-6.615234,ANTRACITAS FABERO,3020410125,15.0,0.2517511146,0.0,2.0499999523,0.0,,2.3,10.9,orange,3.042737138794368
UDF,León,Fabero,42.761714,-6.615234,ANTRACITAS FABERO,3020410125,45.0,0.5543132282,0.0,0.0,0.0,,0.55,100.0,green,3.010292060557636
UDF,León,Fabero,42.759778,-6.633046,FABERO,3020100002,15.0,0.1010889469,0.0,1.7899999619,0.0,,1.89,5.3,orange,3.0351122805285473
UDF,León,Fabero,42.759778,-6.633046,FABERO,3020100002,45.0,0.5577680052,0.0,0.0,0.0,,0.56,100.0,green,3.0103562061927898
UDF,León,Hospital de Órbigo,42.457117,-5.893295,HOSPITAL DE ORBIGO,3020100045,15.0,0.0,0.0,19.1638664193,0.0,,19.16,0.0,red,3.355819893287328
UDF,León,Hospital de Órbigo,42.457117,-5.893295,HOSPITAL DE ORBIGO,3020100045,45.0,0.0,0.0,0.0,0.0,,0.0,0.0,red,3.0
UDF,León,Hospital de Órbigo,42.457117,-5.893295,HOSPITAL DE ORBIGO,3020100045,132.0,0.0,0.0,0.0,0.0,,0.0,0.0,red,3.0
UDF,León,La Bañeza,42.294851,-5.889023,LA BAÑEZA,3020300101,15.0,0.6097718943,0.0,30.509232953,1.4,,32.52,1.9,orange,3.603787804684512
UDF,León,La Bañeza,42.294851,-5.889023,LA BAÑEZA,3020300101,45.0,1.0296024372,0.0,0.0,0.0,,1.03,100.0,green,3.019116864066842
UDF,León,La Bañeza,42.294851,-5.889023,LA BAÑEZA,3020300101,132.0,2.6146877242,0.0,0.0,0.0,,2.61,100.0,green,3.0485475053232247
UDF,León,La Robla,42.794615,-5.634419,C.T. LA ROBLA,ROB,132.0,0.0,0.0,6.3299999237,0.0,,6.33,0.0,red,3.1175305571474548
UDF,León,Laguna de Negrillos,42.247071,-5.66174,LAGUNA DE NEGRILLOS,3020300098,15.0,0.0,0.0,6.4099999428,0.0,,6.41,0.0,red,3.1190159358093763
UDF,León,Laguna de Negrillos,42.247071,-5.66174,LAGUNA DE NEGRILLOS,3020300098,45.0,0.0,0.0,0.0,0.0,,0.0,0.0,red,3.0
UDF,León,Los Barrios de Luna,42.822641,-5.839039,C.H.SAN ISIDORO BARRIOS DE LUNA,3020100047,15.0,0.0,0.0,6.0199999809,0.0,,6.02,0.0,red,3.1117747172687604
UDF,León,Los Barrios de Luna,42.822641,-5.839039,C.H.SAN ISIDORO BARRIOS DE LUNA,3020100047,132.0,0.0,0.0,0.0,0.0,,0.0,0.0,red,3.0
UDF,León,Ponferrada,42.564334,-6.653911,CAMPONARAYA,3020100058,15.0,0.0,0.0,19.6548921169,0.0,,19.65,0.0,red,3.3649368797815256
UDF,León,Ponferrada,42.564334,-6.653911,CAMPONARAYA,3020100058,45.0,0.7981825267,0.0,0.0,0.0,,0.8,100.0,green,3.014820037630203
UDF,León,Ponferrada,42.568954,-6.552898,LA LLANADA,3020310126,15.0,0.0,0.0,4.8200001717,0.0,,4.82,0.0,red,3.0894940462020735
UDF,León,Ponferrada,42.568954,-6.552898,LA LLANADA,3020310126,45.0,0.1257696286,0.0,0.0,0.0,,0.13,100.0,green,3.0023351934754756
UDF,León,Ponferrada,42.560735,-6.604949,PONFERRADA,3020300110,15.0,9.4810785193,0.0,38.7105194862,4.1,,52.29,18.1,orange,3.9709100666346897
UDF,León,Ponferrada,42.560735,-6.604949,PONFERRADA,3020300110,33.0,9.3570556641,0.0,0.0,0.0,,9.36,100.0,green,3.1737345937942134
UDF,León,Ponferrada,42.560735,-6.604949,PONFERRADA,3020300110,45.0,0.5719767847,0.0,0.0,0.0,,0.57,100.0,green,3.0106200238533187
UDF,León,Ponferrada,42.560735,-6.604949,PONFERRADA,3020300110,132.0,9.685799622,0.0,0.0,0.0,,9.69,100.0,green,3.17983845809067
UDF,León,Rioseco de Tapia,42.693746,-5.816003,C.H.ESPINOSA,3020100049,15.0,0.0,0.0,2.0593874666,0.0,,2.06,0.0,red,3.038237118364846
UDF,León,Rioseco de Tapia,42.693746,-5.816003,C.H.ESPINOSA,3020100049,45.0,0.0,0.0,0.0,0.0,,0.0,0.0,red,3.0
UDF,León,Rioseco de Tapia,42.693746,-5.816003,C.H.ESPINOSA,3020100049,132.0,0.0,0.0,0.0,0.0,,0.0,0.0,red,3.0
UDF,León,Santa María del Páramo,42.357593,-5.742681,SANTA MARIA DEL PARAMO,3020100005,15.0,0.0,0.0,6.0720000736,0.0,,6.07,0.0,red,3.11274021488968
UDF,León,Santa María del Páramo,42.357593,-5.742681,SANTA MARIA DEL PARAMO,3020100005,45.0,0.0,0.0,0.0,0.0,,0.0,0.0,red,3.0
UDF,León,Toral de los Vados,42.575594,-6.771024,CRISTALGLASS,3020310115,45.0,0.8403549308,0.0,0.0,0.0,,0.84,100.0,green,3.0156030623079064
UDF,León,Toreno,42.753882,-6.536031,MATARROSA,3020300099,15.0,0.5567974898,0.0,2.5146984672,0.0,,3.07,18.1,orange,3.0570291683181186
UDF,León,Toreno,42.753882,-6.536031,MATARROSA,3020300099,45.0,0.5574060431,0.0,0.0,0.0,,0.56,100.0,green,3.0103494855596473
UDF,León,Torre del Bierzo,42.597245,-6.38335,ALBARES,3020300108,15.0,0.0,0.0,11.4299998283,0.0,,11.43,0.0,red,3.212223422465728
UDF,León,Torre del Bierzo,42.597245,-6.38335,ALBARES,3020300108,45.0,0.4961469769,0.0,0.0,0.0,,0.5,100.0,green,3.00921207445892
UDF,León,Torre del Bierzo,42.597245,-6.38335,ALBARES,3020300108,132.0,0.6779579705,0.0,0.0,0.0,,0.68,100.0,green,3.012587800782918
UDF,León,Villablino,42.939406,-6.287626,VILLABLINO,VIB,33.0,0.0,0.0,4.0,0.0,,4.0,0.0,red,3.074268915364382
UDF,León,Villadangos del Páramo,42.531455,-5.755434,VILLADANGOS,3020310124,15.0,0.0,0.0,28.1047351413,0.0,,28.1,0.0,red,3.5218270488868946
UDF,León,Villadangos del Páramo,42.531455,-5.755434,VILLADANGOS,3020310124,45.0,0.0,0.0,3.2066666667,0.0,,3.21,0.0,red,3.0595389138177316
UDF,León,Villadangos del Páramo,42.531455,-5.755434,VILLADANGOS,3020310124,132.0,0.0,0.0,0.0,0.0,,0.0,0.0,red,3.0
UDF,León,Villafranca del Bierzo,42.59972,-6.805323,VILLAFRANCA DEL BIERZO,3020100008,15.0,0.0,0.0,20.322877767,0.0,,20.32,0.0,red,3.3773395222095
UDF,León,Villafranca del Bierzo,42.59972,-6.805323,VILLAFRANCA DEL BIERZO,3020100008,45.0,1.0053332847,0.0,0.0,0.0,,1.01,100.0,green,3.018666253158595
UDF,Lugo,Begonte,43.123707,-7.644121,FIBRANOR,2920420006,132.0,0.0,0.0,0.0,0.0,,0.0,0.0,red,3.0
UDF,Lugo,Carballedo,42.467684,-7.72692,PEARES,2920200025,20.0,0.0,0.0,10.8600001335,0.0,,10.86,0.0,red,3.201640107693022
UDF,Lugo,Carballedo,42.467684,-7.72692,PEARES,2920200025,132.0,2.1877605704,0.0,0.0,0.0,,2.19,100.0,green,3.0406206511601424
UDF,Lugo,Chantada,42.626438,-7.713375,BELESAR,BEL,132.0,12.8188907365,0.0,0.179999996,0.0,,13.0,98.6,green,3.2413533789107225
UDF,Lugo,Chantada,42.625459,-7.768438,CHANTADA,CHA,20.0,0.0,0.0,9.6772215363,0.0,,9.68,0.0,red,3.1796791868104597
UDF,Lugo,Chantada,42.625459,-7.768438,CHANTADA,CHA,66.0,0.1744657426,0.0,0.0,0.0,,0.17,100.0,green,3.0032393453677857
UDF,Lugo,Chantada,42.625459,-7.768438,CHANTADA,CHA,132.0,2.2659681299,0.0,82.8767123288,0.0,,85.14,2.7,orange,4.58086363222095
UDF,Lugo,Friol,43.020176,-7.817032,FRIOL,2920200103,20.0,0.0,0.0,2.9300000668,0.0,,2.93,0.0,red,3.0544019817447006
UDF,Lugo,Friol,43.020176,-7.817032,FRIOL,2920200103,66.0,0.2451832175,0.0,0.0,0.0,,0.25,100.0,green,3.0045523729073187
UDF,Lugo,Láncara,42.797245,-7.247247,P.E. MONTES DE ABELLA,2920420303,132.0,0.0,0.0,27.3400011063,0.0,,27.34,0.0,red,3.5076280570564755
UDF,Lugo,Lugo,43.018431,-7.573671,LUGO,2920200026,20.0,0.0,0.0,66.0917618311,0.0,,66.09,0.0,red,4.227140866429212
UDF,Lugo,Lugo,43.018431,-7.573671,LUGO,2920200026,132.0,0.0,0.0,0.9999999776,0.0,,1.0,0.0,red,3.0185672284251894
UDF,Lugo,Monforte de Lemos,42.511288,-7.513475,MONFORTE,2920200029,20.0,0.0,0.0,31.4400005341,0.0,,31.44,0.0,red,3.5837536846807985
UDF,Lugo,Monforte de Lemos,42.511288,-7.513475,MONFORTE,2920200029,132.0,1.9255808037,0.0,0.0,0.0,,1.93,100.0,green,3.0357526994343185
UDF,Lugo,O Corgo,42.925481,-7.359797,CORGO,2920200065,20.0,0.0,0.0,16.5200001907,0.0,,16.52,0.0,red,3.3067306239956675
UDF,Lugo,O Corgo,42.925481,-7.359797,CORGO,2920200065,132.0,1.9629703767,0.0,0.0,0.0,,1.96,100.0,green,3.03644692019248
UDF,Lugo,Palas de Rei,42.866314,-7.868477,PALAS,2920200055,20.0,0.0,0.0,7.8820702098,0.0,,7.88,0.0,red,3.146348201326938
UDF,Lugo,Palas de Rei,42.866314,-7.868477,PALAS,2920200055,66.0,0.2049203179,0.0,0.0,0.0,,0.2,100.0,green,3.0038048024366395
UDF,Lugo,Sarria,42.776324,-7.423602,SARRIA,2920200057,20.0,0.0,0.0,30.5361779816,0.0,,30.54,0.0,red,3.566972204516788
UDF,Lugo,Sarria,42.776324,-7.423602,SARRIA,2920200057,132.0,1.9251884507,0.0,0.0,0.0,,1.93,100.0,green,3.035745414526381
UDF,Lugo,Triacastela,42.758905,-7.227921,TRIACASTELA,2920200028,20.0,0.0,0.0,9.9599997997,0.0,,9.96,0.0,red,3.184929595538295
UDF,Lugo,Triacastela,42.758905,-7.227921,TRIACASTELA,2920200028,132.0,2.0241970439,0.0,0.0,0.0,,2.02,100.0,green,3.0375837297335604
UDF,Madrid,Ajalvir,40.494265,-3.467405,I.N.T.A.,3020100115,15.0,0.0,0.0,4.8674548455,0.0,,4.87,0.0,red,3.0903751479900974
UDF,Madrid,Ajalvir,40.494265,-3.467405,I.N.T.A.,3020100115,45.0,0.0,0.0,0.0,0.0,,0.0,0.0,red,3.0
UDF,Madrid,Alcalá de Henares,40.477574,-3.385975,ALCALA I,3020100004,15.0,0.0,0.0,72.8539355463,0.0,,72.85,0.0,red,4.3526956932625716
UDF,Madrid,Alcalá de Henares,40.477574,-3.385975,ALCALA I,3020100004,45.0,0.0,0.0,0.0,0.0,,0.0,0.0,red,3.0
UDF,Madrid,Alcalá de Henares,40.477574,-3.385975,ALCALA I,3020100004,132.0,0.0,0.0,0.0,0.0,,0.0,0.0,red,3.0
UDF,Madrid,Alcalá de Henares,40.510962,-3.31966,ALCALA II,3020100001,15.0,0.0,0.0,29.1415834745,0.0,,29.14,0.0,red,3.5410784491629275
UDF,Madrid,Alcalá de Henares,40.510962,-3.31966,ALCALA II,3020100001,132.0,0.0,0.0,0.0,0.0,,0.0,0.0,red,3.0
UDF,Madrid,Alcobendas,40.50957,-3.597841,AENA,AEN,45.0,0.0,0.0,0.0,0.0,,0.0,0.0,red,3.0
UDF,Madrid,Aranjuez,40.02487,-3.635541,ARANJUEZ I,3020100003,15.0,0.0,0.0,48.2417192213,0.0,,48.24,0.0,red,3.895715040469751
UDF,Madrid,Aranjuez,40.02487,-3.635541,ARANJUEZ I,3020100003,45.0,0.0,0.0,0.0,0.0,,0.0,0.0,red,3.0
UDF,Madrid,Aranjuez,40.02487,-3.635541,ARANJUEZ I,3020100003,132.0,0.0,0.0,0.0,0.0,,0.0,0.0,red,3.0
UDF,Madrid,Aranjuez,40.031539,-3.574451,CERRO GULLON,3020410872,15.0,0.0,0.0,50.3513638107,0.0,,50.35,0.0,red,3.93488529433452
UDF,Madrid,Aranjuez,40.031539,-3.574451,CERRO GULLON,3020410872,132.0,0.0,0.0,0.0,0.0,,0.0,0.0,red,3.0
UDF,Madrid,Arganda del Rey,40.301526,-3.459327,ARGANDA,ARD,15.0,0.0,0.0,87.7915831723,20.0,,107.79,0.0,red,5.001390991904069
UDF,Madrid,Arganda del Rey,40.301526,-3.459327,ARGANDA,ARD,45.0,0.4217093339,0.0,0.0,0.0,,0.42,100.0,green,3.007829973706947
UDF,Madrid,Arganda del Rey,40.321489,-3.481168,LA POVEDA,3020100129,15.0,0.0,0.0,57.8622233068,14.9,,72.76,0.0,red,4.3509928511242455
UDF,Madrid,Arganda del Rey,40.321489,-3.481168,LA POVEDA,3020100129,45.0,0.4702508591,0.0,0.0,14.700000000000001,,15.17,3.1,orange,3.281669519277735
UDF,Madrid,Ciempozuelos,40.131835,-3.649846,LA SENDILLA,3020410407,15.0,0.0,0.0,26.5753823001,0.0,,26.58,0.0,red,3.493431204705555
UDF,Madrid,Ciempozuelos,40.131835,-3.649846,LA SENDILLA,3020410407,45.0,0.0,0.0,0.0,0.0,,0.0,0.0,red,3.0
UDF,Madrid,Colmenar de Oreja,40.110624,-3.380911,COLMENAR DE OREJA,3020100010,15.0,0.0,0.0,31.0175361353,0.0,,31.02,0.0,red,3.575909691511063
UDF,Madrid,Colmenar de Oreja,40.110624,-3.380911,COLMENAR DE OREJA,3020100010,45.0,0.0,0.0,0.0,0.0,,0.0,0.0,red,3.0
UDF,Madrid,Coslada,40.413141,-3.540916,BARRIO DEL JARAMA,3020410851,15.0,0.0,0.0,56.6969197696,0.0,,56.7,0.0,red,4.052704683947393
UDF,Madrid,Coslada,40.413141,-3.540916,BARRIO DEL JARAMA,3020410851,45.0,0.0,0.0,0.0,0.0,,0.0,0.0,red,3.0
UDF,Madrid,Coslada,40.439551,-3.555119,CITIPAL,3020410232,15.0,0.0,0.0,34.8734245044,0.0,,34.87,0.0,red,3.647502853245861
UDF,Madrid,Coslada,40.439551,-3.555119,CITIPAL,3020410232,45.0,0.0,0.0,10.0,0.0,,10.0,0.0,red,3.1856722884109545
UDF,Madrid,Coslada,40.422509,-3.574823,COSLADA,COS,15.0,0.0,0.0,52.2875012122,0.0,,52.29,0.0,red,3.970834000535974
UDF,Madrid,Coslada,40.422509,-3.574823,COSLADA,COS,45.0,0.0,0.0,0.0,0.0,,0.0,0.0,red,3.0
UDF,Madrid,Coslada,40.445262,-3.534643,SAN FERNANDO,3020100043,15.0,0.0,0.0,22.6570476185,4.9,,27.56,0.0,red,3.5116580093176544
UDF,Madrid,Coslada,40.445262,-3.534643,SAN FERNANDO,3020100043,45.0,0.0,0.0,0.0,0.0,,0.0,0.0,red,3.0
UDF,Madrid,Getafe,40.318319,-3.691168,GETAFE,GTF,15.0,0.0,0.0,35.2462088705,0.0,,35.25,0.0,red,3.6544244258796224
UDF,Madrid,Getafe,40.318319,-3.691168,GETAFE,GTF,45.0,0.7976544802,0.0,16.9578082192,0.0,,17.76,4.5,orange,3.3296697391192946
UDF,Madrid,Loeches,40.387758,-3.419833,LOECHES,LOE,15.0,0.0,0.0,45.4284718467,37.1,,82.53,0.0,red,4.532325022683583
UDF,Madrid,Loeches,40.387758,-3.419833,LOECHES,LOE,45.0,0.0,0.0,0.0,0.0,,0.0,0.0,red,3.0
UDF,Madrid,Loeches,40.387758,-3.419833,LOECHES,LOE,132.0,0.0,0.0,0.0,0.0,,0.0,0.0,red,3.0
UDF,Madrid,Madrid,40.388467,-3.643593,ALTO PALOMERAS,3020000005,15.0,0.0,0.0,39.6315732976,0.0,,39.63,0.0,red,3.735848490749188
UDF,Madrid,Madrid,40.388467,-3.643593,ALTO PALOMERAS,3020000005,45.0,9.5521128643,0.0,0.0,0.0,,9.55,100.0,green,3.17735626546743
UDF,Madrid,Madrid,40.445384,-3.555105,ARAGON,3020410804,15.0,0.0,0.0,20.5184485345,30.006429999999998,,50.52,0.0,red,3.9381069819186134
UDF,Madrid,Madrid,40.445384,-3.555105,ARAGON,3020410804,45.0,0.0,0.0,0.0,0.0,,0.0,0.0,red,3.0
UDF,Madrid,Madrid,40.452746,-3.694301,AZCA,AZC,15.0,7.1836088538,0.0,58.3964789306,0.0,,65.58,11.0,orange,4.217640497312084
UDF,Madrid,Madrid,40.475475,-3.585936,BARAJAS,3020410247,15.0,0.0,0.0,52.2135974116,1.25,,53.46,0.0,red,3.9926708478093764
UDF,Madrid,Madrid,40.475475,-3.585936,BARAJAS,3020410247,45.0,0.0,0.0,0.0,0.0,,0.0,0.0,red,3.0
UDF,Madrid,Madrid,40.428228,-3.647035,BARRIO DE BILBAO,3020100119,15.0,0.0,0.0,10.0434808743,0.0,,10.04,0.0,red,3.186479607754294
UDF,Madrid,Madrid,40.428228,-3.647035,BARRIO DE BILBAO,3020100119,45.0,0.0,0.0,0.0,0.0,,0.0,0.0,red,3.0
UDF,Madrid,Madrid,40.376199,-3.678046,BARRIO DE LA PAZ,3020000002,15.0,8.453911869,0.0,18.6500271095,0.0,,27.1,31.2,yellow,3.503245037508897
UDF,Madrid,Madrid,40.376199,-3.678046,BARRIO DE LA PAZ,3020000002,45.0,9.2760716417,0.0,0.0,0.0,,9.28,100.0,green,3.17223094491784
UDF,Madrid,Madrid,40.363382,-3.614684,CAMINO CONGOSTO,3020410252,15.0,0.0,0.0,55.8289538154,1.6,,57.43,0.0,red,4.0662965275952345
UDF,Madrid,Madrid,40.363382,-3.614684,CAMINO CONGOSTO,3020410252,45.0,0.0,0.0,6.5095890411,0.0,,6.51,0.0,red,3.120865029387591
UDF,Madrid,Madrid,40.464508,-3.621327,CAMPO NACIONES NUEVO,CPN,15.0,0.0,0.0,77.8305018776,0.0,,77.83,0.0,red,4.44509673917871
UDF,Madrid,Madrid,40.464508,-3.621327,CAMPO NACIONES NUEVO,CPN,45.0,0.0,0.0,0.0,0.0,,0.0,0.0,red,3.0
UDF,Madrid,Madrid,40.434687,-3.614328,CANILLEJAS,CLJ,15.0,0.0,0.0,93.2821243971,13.15,,106.43,0.0,red,4.976149609724896
UDF,Madrid,Madrid,40.434687,-3.614328,CANILLEJAS,CLJ,45.0,0.0,0.0,0.0,100.0,,100.0,0.0,red,4.856722884109547
UDF,Madrid,Madrid,40.396736,-3.676639,CERRO DE LA PLATA NUEVA,CPL,15.0,3.7248029936,0.0,113.0501198303,0.2352,,117.01,3.2,orange,5.172553727196039
UDF,Madrid,Madrid,40.396736,-3.676639,CERRO DE LA PLATA NUEVA,CPL,45.0,9.4075629794,0.0,0.0,0.0,,9.41,100.0,green,3.174672374675538
UDF,Madrid,Madrid,40.454966,-3.699836,CHAMARTIN,3020000015,15.0,0.1200109807,0.0,34.4205711213,0.0,,34.54,0.3,orange,3.6413228921924805
UDF,Madrid,Madrid,40.454966,-3.699836,CHAMARTIN,3020000015,45.0,12.7338935787,0.0,0.0,0.0,,12.73,100.0,green,3.236433116113879
UDF,Madrid,Madrid,40.337601,-3.581117,COG. VALDEMINGOMEZ,3020410237,45.0,0.249270117,0.0,1.1671232877,0.0,,1.42,17.6,orange,3.026298500474083
UDF,Madrid,Madrid,40.433204,-3.65867,CONCEPCION,3020000012,15.0,0.0,0.0,41.5704749295,0.0,,41.57,0.0,red,3.7718485210490487
UDF,Madrid,Madrid,40.433204,-3.65867,CONCEPCION,3020000012,45.0,0.0,0.0,0.0,0.0,,0.0,0.0,red,3.0
UDF,Madrid,Madrid,40.450154,-3.643438,EL COTO,LCT,15.0,0.0,0.0,79.6911400242,0.25816,,79.95,0.0,red,4.484436949234721
UDF,Madrid,Madrid,40.399787,-3.627483,EL VANDEL,3020100128,15.0,0.0,0.0,16.0158182711,0.0,,16.02,0.0,red,3.2973693629169114
UDF,Madrid,Madrid,40.399787,-3.627483,EL VANDEL,3020100128,45.0,9.5058949115,0.0,0.0,0.0,,9.51,100.0,green,3.1764981261612255
UDF,Madrid,Madrid,40.472738,-3.664183,HORTALEZA,HRZ,15.0,9.1867918189,0.0,68.8893838122,0.0,,78.08,11.8,orange,4.449658219980195
UDF,Madrid,Madrid,40.472738,-3.664183,HORTALEZA,HRZ,45.0,13.1636266519,0.0,0.0,0.0,,13.16,100.0,green,3.2444120684245705
UDF,Madrid,Madrid,40.442364,-3.586459,LAS MERCEDES,3020100117,15.0,0.0,0.0,50.9827588483,0.0,,50.98,0.0,red,3.946608550486771
UDF,Madrid,Madrid,40.442364,-3.586459,LAS MERCEDES,3020100117,45.0,0.0,0.0,0.0,0.0,,0.0,0.0,red,3.0
UDF,Madrid,Madrid,40.401284,-3.706727,LAS PEÑUELAS,3020310117,15.0,0.0,0.0,33.0004655049,0.0,,33.0,0.0,red,3.6127271948921553
UDF,Madrid,Madrid,40.401284,-3.706727,LAS PEÑUELAS,3020310117,45.0,10.4752132783,0.0,0.0,0.0,,10.48,100.0,green,3.194495682097478
UDF,Madrid,Madrid,40.368535,-3.582172,LOS BERROCALES,3020420428,15.0,0.0,0.0,60.286,2.67742,,62.96,0.0,red,4.169056227758007
UDF,Madrid,Madrid,40.368535,-3.582172,LOS BERROCALES,3020420428,132.0,0.0,0.0,0.0,0.0,,0.0,0.0,red,3.0
UDF,Madrid,Madrid,40.434244,-3.660775,MANUEL BECERRA,MBC,15.0,10.9424399055,0.0,66.2750088059,0.3222,,77.54,14.1,orange,4.439696401882717
UDF,Madrid,Madrid,40.412539,-3.719076,MAZARREDO,MAZ,15.0,5.1216063047,0.0,94.0261978437,0.0,,99.15,5.2,orange,4.8408999687154575
UDF,Madrid,Madrid,40.409864,-3.691144,MEDIODIA,MDI,15.0,0.0,0.0,76.7260713069,0.0,,76.73,0.0,red,4.424590524033421
UDF,Madrid,Madrid,40.365517,-3.656663,MERCAMADRID,3020000028,15.0,0.0,0.0,64.8689331328,0.0,,64.87,0.0,red,4.2044363261544175
UDF,Madrid,Madrid,40.365517,-3.656663,MERCAMADRID,3020000028,132.0,0.0,0.0,0.0,0.0,,0.0,0.0,red,3.0
UDF,Madrid,Madrid,40.402155,-3.641678,MORATALAZ,3020000029,15.0,0.0,0.0,31.0262928526,0.0,,31.03,0.0,red,3.576072279485069
UDF,Madrid,Madrid,40.402155,-3.641678,MORATALAZ,3020000029,45.0,0.5964516345,0.0,0.0,0.0,,0.6,100.0,green,3.011074453990407
UDF,Madrid,Madrid,40.43025,-3.699381,NORTE,NOR,15.0,7.0021320259,0.0,95.6617836608,0.8712199999999999,,103.54,6.8,orange,4.922360557388829
UDF,Madrid,Madrid,40.43025,-3.699381,NORTE,NOR,45.0,10.9845190289,0.0,0.0,0.0,,10.98,100.0,green,3.203952078518954
UDF,Madrid,Madrid,40.445444,-3.693012,NUEVOS MINISTERIOS,3020100118,15.0,1.6128487765,0.0,51.4212778825,0.0,,53.03,3.0,orange,3.984696766065295
UDF,Madrid,Madrid,40.445444,-3.693012,NUEVOS MINISTERIOS,3020100118,45.0,10.4425826768,0.0,0.0,0.0,,10.44,100.0,green,3.193889822252205
UDF,Madrid,Madrid,40.424877,-3.690679,PASEO DE RECOLETOS,3020100120,15.0,1.1015463806,0.0,28.9602337244,0.0,,30.06,3.7,orange,3.558163950580226
UDF,Madrid,Madrid,40.424877,-3.690679,PASEO DE RECOLETOS,3020100120,45.0,10.9448917452,0.0,0.0,0.0,,10.94,100.0,green,3.2032163096741453
UDF,Madrid,Madrid,40.481766,-3.656171,PINAR,3020410449,15.0,0.0,0.0,20.1267770559,13.0,,33.13,0.0,red,3.6150724503648464
UDF,Madrid,Madrid,40.481766,-3.656171,PINAR,3020410449,45.0,0.0,0.0,0.0,0.0,,0.0,0.0,red,3.0
UDF,Madrid,Madrid,40.412471,-3.655665,POLIGONO 38,3020000036,15.0,5.8138499668,0.0,34.2255247083,0.0,,40.04,14.5,orange,3.7434202322469443
UDF,Madrid,Madrid,40.412471,-3.655665,POLIGONO 38,3020000036,45.0,9.1642417267,0.0,0.0,0.0,,9.16,100.0,green,3.170154573294755
UDF,Madrid,Madrid,40.44272,-3.666568,PROSPERIDAD,PRO,15.0,12.7487671687,0.0,89.8982314569,0.0,,102.65,12.4,orange,4.905870313333127
UDF,Madrid,Madrid,40.383854,-3.693245,PUENTE PRINCESA,PPA,15.0,0.0,0.0,74.8650892768,0.0,,74.87,0.0,red,4.3900372448113885
UDF,Madrid,Madrid,40.383854,-3.693245,PUENTE PRINCESA,PPA,45.0,10.6185308179,0.0,0.0,0.0,,10.62,100.0,green,3.197156691652174
UDF,Madrid,Madrid,40.453387,-3.553198,REJAS,3020410857,15.0,0.0,0.0,11.9616870305,0.0,,11.96,0.0,red,3.2220953804208574
UDF,Madrid,Madrid,40.453387,-3.553198,REJAS,3020410857,45.0,0.0,0.0,0.0,0.0,,0.0,0.0,red,3.0
UDF,Madrid,Madrid,40.423564,-3.719204,ROSALES,3020410448,15.0,0.0,0.0,33.1369581127,0.0,,33.14,0.0,red,3.615261484376296
UDF,Madrid,Madrid,40.423564,-3.719204,ROSALES,3020410448,45.0,9.3878719539,0.0,0.0,0.0,,9.39,100.0,green,3.1743067668989635
UDF,Madrid,Madrid,40.42452,-3.681014,SALAMANCA,3020000041,15.0,1.12476312,0.0,42.5090766919,0.0,,43.63,2.6,orange,3.810159489003249
UDF,Madrid,Madrid,40.42452,-3.681014,SALAMANCA,3020000041,45.0,9.2001835883,0.0,0.0,0.0,,9.2,100.0,green,3.170821914064057
UDF,Madrid,Madrid,40.415574,-3.620876,SAN BLAS,3020100127,15.0,0.0,0.0,26.2259873026,0.0,,26.23,0.0,red,3.486943907831038
UDF,Madrid,Madrid,40.415574,-3.620876,SAN BLAS,3020100127,45.0,0.0,0.0,0.0,0.0,,0.0,0.0,red,3.0
UDF,Madrid,Madrid,40.384199,-3.657448,SAN DIEGO,3020100116,15.0,2.7448056272,0.0,46.2630627251,0.0,,49.01,5.6,orange,3.9099403067114347
UDF,Madrid,Madrid,40.384199,-3.657448,SAN DIEGO,3020100116,45.0,9.5121431795,0.0,0.0,0.0,,9.51,100.0,green,3.176614139183042
UDF,Madrid,Madrid,40.424558,-3.688005,SERRANO,3020410833,15.0,0.0,0.0,30.8928493548,0.0,,30.89,0.0,red,3.57359460352406
UDF,Madrid,Madrid,40.424558,-3.688005,SERRANO,3020410833,45.0,10.9196758473,0.0,0.0,0.0,,10.92,100.0,green,3.202748120327402
UDF,Madrid,Madrid,40.432543,-3.630563,SIMANCAS,SIM,15.0,0.0547786771,0.0,104.9950712533,0.0,,105.05,0.1,orange,4.950484603380474
UDF,Madrid,Madrid,40.486906,-3.603836,VALDEBEBAS,3020410836,15.0,0.0,0.0,101.4038174273,2.26036,,103.66,0.0,red,4.924756504916603
UDF,Madrid,Madrid,40.486906,-3.603836,VALDEBEBAS,3020410836,45.0,0.0,0.0,0.0,0.0,,0.0,0.0,red,3.0
UDF,Madrid,Madrid,40.388871,-3.619982,VALLECAS 2,VLC,15.0,1.6474762452,0.0,66.2512786017,0.0,,67.9,2.4,orange,4.260691719267832
UDF,Madrid,Madrid,40.388871,-3.619982,VALLECAS 2,VLC,45.0,9.575079207,0.0,0.0,0.0,,9.58,100.0,green,3.177782686807984
UDF,Madrid,Madrid,40.396959,-3.603226,VICALVARO,3020410200,15.0,0.0,0.0,37.5310065765,0.0,,37.53,0.0,red,3.696846787742534
UDF,Madrid,Madrid,40.396959,-3.603226,VICALVARO,3020410200,45.0,9.4716671384,0.0,0.0,0.0,,9.47,100.0,green,3.1758626112653565
UDF,Madrid,Madrid,40.363763,-3.690026,VILLAVERDE,3020030089,15.0,0.0,0.0,38.910492902,0.0,,38.91,0.0,red,3.722460026031255
UDF,Madrid,Madrid,40.363763,-3.690026,VILLAVERDE,3020030089,45.0,9.2003653228,0.0,0.0,0.0,,9.2,100.0,green,3.1708252883701067
UDF,Madrid,Mejorada del Campo,40.390562,-3.475702,MEJORADA,3020100027,15.0,0.0,0.0,57.8477445278,2.0,,59.85,0.0,red,4.111206768271082
UDF,Madrid,Mejorada del Campo,40.390562,-3.475702,MEJORADA,3020100027,45.0,0.0,0.0,0.0,0.0,,0.0,0.0,red,3.0
UDF,Madrid,Navas del Rey,40.330096,-4.247272,C.H.LAS PICADAS,3020410013,132.0,3.8970259688,0.0,0.0,0.0,,3.9,100.0,green,3.0723569729624014
UDF,Madrid,Nuevo Baztán,40.375767,-3.240769,NUEVO BAZTAN,3020100121,15.0,0.0,0.0,23.0615041571,0.0,,23.06,0.0,red,3.42818822510475
UDF,Madrid,Nuevo Baztán,40.375767,-3.240769,NUEVO BAZTAN,3020100121,45.0,0.0,0.0,0.0,0.0,,0.0,0.0,red,3.0
UDF,Madrid,Perales de Tajuña,40.234752,-3.34982,PERALES,3020100035,15.0,0.0,0.0,22.4534461941,0.0,,22.45,0.0,red,3.416898273757079
UDF,Madrid,Perales de Tajuña,40.234752,-3.34982,PERALES,3020100035,45.0,0.0,0.0,0.0,0.0,,0.0,0.0,red,3.0
UDF,Madrid,Pinto,40.271083,-3.67845,LOS ARENALES,3020410584,15.0,0.0,0.0,41.8266170289,0.0,,41.83,0.0,red,3.776604370024447
UDF,Madrid,Pinto,40.271083,-3.67845,LOS ARENALES,3020410584,45.0,0.2501106262,0.0,0.0,48.992000000000004,,49.24,0.5,orange,3.914289536615194
UDF,Madrid,Rivas-Vaciamadrid,40.389138,-3.533842,CRISTO DE RIVAS,3020420414,15.0,0.0,0.0,58.8981886213,2.0,,60.9,0.0,red,4.130710604139873
UDF,Madrid,Rivas-Vaciamadrid,40.389138,-3.533842,CRISTO DE RIVAS,3020420414,132.0,0.0,0.0,0.0,0.0,,0.0,0.0,red,3.0
UDF,Madrid,Rivas-Vaciamadrid,40.340245,-3.512994,MIRADOR DEL SUR,3020410842,15.0,0.0,0.0,20.1216782021,8.0,,28.12,0.0,red,3.522141634574037
UDF,Madrid,Rivas-Vaciamadrid,40.340245,-3.512994,MIRADOR DEL SUR,3020410842,132.0,0.0,0.0,0.0,0.0,,0.0,0.0,red,3.0
UDF,Madrid,Rivas-Vaciamadrid,40.350505,-3.526012,VACIAMADRID,3020310105,15.0,0.0,0.0,42.0913561075,0.0,,42.09,0.0,red,3.781519841079994
UDF,Madrid,Rivas-Vaciamadrid,40.350505,-3.526012,VACIAMADRID,3020310105,45.0,0.1737045374,0.0,0.0,0.0,,0.17,100.0,green,3.0032252118966425
UDF,Madrid,San Fernando de Henares,40.449594,-3.514194,PUENTE DE SAN FERNANDO,PSF,45.0,0.0,0.0,8.2410958904,0.0,,8.24,0.0,red,3.1530143132984683
UDF,Madrid,San Martín de la Vega,40.231233,-3.606274,PARQUE TEMATICO WARNER,3020410194,15.0,0.0,0.0,13.7382266559,0.0,,13.74,0.0,red,3.255080798190933
UDF,Madrid,San Martín de la Vega,40.231233,-3.606274,PARQUE TEMATICO WARNER,3020410194,45.0,2.5929000714,0.0,0.0,0.0,,2.59,100.0,green,3.0481429689877766
UDF,Madrid,San Martín de la Vega,40.213723,-3.569243,SAN MARTIN I,3020100044,15.0,0.5029085881,0.0,17.6358889127,0.0,,18.14,2.8,orange,3.336787204099644
UDF,Madrid,San Martín de la Vega,40.213723,-3.569243,SAN MARTIN I,3020100044,45.0,0.499926993,0.0,0.0,0.0,,0.5,100.0,green,3.009282258882872
UDF,Madrid,San Martín de la Vega,40.235361,-3.627882,SAN MARTIN II,3020100046,15.0,0.0,0.0,21.6670151301,0.0,,21.67,0.0,red,3.4022964282240444
UDF,Madrid,San Martín de la Vega,40.235361,-3.627882,SAN MARTIN II,3020100046,45.0,0.5644319724,0.0,0.0,0.0,,0.56,100.0,green,3.0104799375967817
UDF,Madrid,San Martín de Valdeiglesias,40.372181,-4.309319,C.H.SAN JUAN,3020410017,132.0,1.6781999345,0.0,0.0,0.0,,1.68,100.0,green,3.0311595222249728
UDF,Madrid,Valdemoro,40.193575,-3.654672,VALDEMORO,3020100050,15.0,0.0,0.0,24.9988826687,0.0,,25.0,0.0,red,3.464159975281448
UDF,Madrid,Valdemoro,40.193575,-3.654672,VALDEMORO,3020100050,45.0,0.0,0.0,0.0,0.0,,0.0,0.0,red,3.0
UDF,Madrid,Valdemoro,40.163348,-3.644399,VALDEMORO 2,VDM,15.0,0.0,0.0,31.0638409256,0.0,,31.06,0.0,red,3.576769443149002
UDF,Madrid,Valdemoro,40.163348,-3.644399,VALDEMORO 2,VDM,45.0,0.0,0.0,0.0,0.0,,0.0,0.0,red,3.0
UDF,Madrid,Valdemoro,40.163348,-3.644399,VALDEMORO 2,VDM,132.0,0.0,0.0,0.0,0.0,,0.0,0.0,red,3.0
UDF,Madrid,Villalbilla,40.431713,-3.35548,LOS HUEROS,3020100022,15.0,0.0,0.0,33.3759071218,0.0,,33.38,0.0,red,3.6196981053096087
UDF,Madrid,Villalbilla,40.431713,-3.35548,LOS HUEROS,3020100022,45.0,0.0,0.0,0.0,0.0,,0.0,0.0,red,3.0
UDF,Madrid,Villarejo de Salvanés,40.178488,-3.291813,VILLAREJO DE SALVANES,3020410206,15.0,0.0,0.0,23.3594424187,0.0,,23.36,0.0,red,3.4337201129883956
UDF,Madrid,Villarejo de Salvanés,40.178488,-3.291813,VILLAREJO DE SALVANES,3020410206,45.0,0.0,0.0,0.0,0.0,,0.0,0.0,red,3.0
UDF,Madrid,Villaviciosa de Odón,40.348373,-3.904373,VILLAVICIOSA DE ODON,VVI,132.0,3.2019022419,0.0,40.0,0.0,,43.2,7.4,orange,3.802139605295993
UDF,Ourense,A Rúa,42.394449,-7.125473,A RUA,2920200111,20.0,0.0,0.0,8.3420001335,0.0,,8.34,0.0,red,3.1548878254711434
UDF,Ourense,A Rúa,42.394449,-7.125473,A RUA,2920200111,132.0,3.7037332302,0.0,0.0,0.0,,3.7,100.0,green,3.0687680624514933
UDF,Ourense,Allariz,42.182787,-7.794409,ALLARIZ,2920200054,20.0,0.0,0.0,15.2100000381,0.0,,15.21,0.0,red,3.2824075513804734
UDF,Ourense,Allariz,42.182787,-7.794409,ALLARIZ,2920200054,132.0,0.5746258364,0.0,0.0,0.0,,0.57,100.0,green,3.0106692094024448
UDF,Ourense,Boborás,42.39796,-8.157282,ALBARELLOS,ALB,20.0,0.0,0.0,14.3100004196,0.0,,14.31,0.0,red,3.2656970525068854
UDF,Ourense,Carballeda de Valdeorras,42.388758,-6.862576,CARBALLEDA,2920420220,20.0,0.0,0.0,30.0050003433,0.0,,30.01,0.0,red,3.557109707751199
UDF,Ourense,Carballeda de Valdeorras,42.388758,-6.862576,CARBALLEDA,2920420220,132.0,4.9416833172,0.0,0.0,0.0,,4.94,100.0,green,3.091753365010676
UDF,Ourense,Castrelo de Miño,42.291654,-8.113708,CASTRELO,CTL,20.0,4.2201411543,0.0,19.3484001526,0.0,,23.57,17.9,orange,3.4376024998960237
UDF,Ourense,Celanova,42.146032,-7.943179,CELANOVA,2920200062,20.0,0.0,0.0,14.4299998665,0.0,,14.43,0.0,red,3.2679251096982824
UDF,Ourense,Celanova,42.146032,-7.943179,CELANOVA,2920200062,132.0,0.8395108093,0.0,0.0,0.0,,0.84,100.0,green,3.0155873893108462
UDF,Ourense,Lobios,41.94102,-8.05529,CONCHAS,2920200034,20.0,0.0,0.0,3.3999998942,0.0,,3.4,0.0,red,3.0631285760953118
UDF,Ourense,Lobios,41.94102,-8.05529,CONCHAS,2920200034,132.0,1.2229135606,0.0,0.0,0.0,,1.22,100.0,green,3.022706115932539
UDF,Ourense,Muíños,41.956154,-7.981142,SALAS,2920420016,132.0,0.8789276492,0.0,0.0,0.0,,0.88,100.0,green,3.0163192507974625
UDF,Ourense,O Barco de Valdeorras,42.418368,-7.005504,O BARCO,2920200035,15.0,2.0062735772,0.0,13.2299995422,0.0,,15.24,13.2,orange,3.2828953696933314
UDF,Ourense,O Barco de Valdeorras,42.418368,-7.005504,O BARCO,2920200035,132.0,4.2837823972,0.0,0.0,0.0,,4.28,100.0,green,3.079537968074269
UDF,Ourense,O Carballiño,42.436044,-8.056408,CARBALLINO,2920320005,20.0,0.0,0.0,16.1900005341,0.0,,16.19,0.0,red,3.3006034448540924
UDF,Ourense,O Carballiño,42.436044,-8.056408,CARBALLINO,2920320005,132.0,0.509991247,0.0,0.0,0.0,,0.51,100.0,green,3.0094691241900047
UDF,Ourense,Ourense,42.336199,-7.867047,BARBAÑA,2920200060,20.0,0.0,0.0,62.2398171971,0.0,,62.24,0.0,red,4.1556209289265045
UDF,Ourense,Ourense,42.336199,-7.867047,BARBAÑA,2920200060,132.0,0.5405676919,0.0,0.0,0.0,,0.54,100.0,green,3.01003684403961
UDF,Ourense,Ourense,42.355907,-7.95003,SACEDA,2920420111,20.0,0.0,0.0,8.0700002384,0.0,,8.07,0.0,red,3.149837541174068
UDF,Ourense,Ourense,42.355907,-7.95003,SACEDA,2920420111,132.0,0.0,0.0,7.3899998665,0.0,,7.39,0.0,red,3.1372118186569704
UDF,Ourense,Ourense,42.357867,-7.84877,VELLE,VEL,20.0,10.3600006104,0.0,57.612643721,0.0,,67.97,15.2,orange,4.2620636422354945
UDF,Ourense,Padrenda,42.153852,-8.193112,FRIEIRA,FRI,20.0,0.6360863169,0.0,8.1218497317,0.60212,,9.36,6.8,orange,3.173790302619836
UDF,Ourense,Padrenda,42.153852,-8.193112,FRIEIRA,FRI,132.0,1.6404251235,0.0,0.0,0.0,,1.64,100.0,green,3.0304581486647066
UDF,Ourense,Parada de Sil,42.384898,-7.509263,REGUEIRO,2920200043,20.0,0.0,0.0,3.4800000191,0.0,,3.48,0.0,red,3.0646139567216464
UDF,Ourense,Parada de Sil,42.384898,-7.509263,REGUEIRO,2920200043,132.0,2.5639877942,0.0,0.0,0.0,,2.56,100.0,green,3.047606148120687
UDF,Ourense,San Cibrao das Viñas,42.290125,-7.818879,SAN CIPRIAN,2920200038,20.0,0.1468694047,0.0,53.4270108797,5.012,,58.59,0.3,orange,4.087777446097478
UDF,Ourense,San Cibrao das Viñas,42.290125,-7.818879,SAN CIPRIAN,2920200038,132.0,0.0,0.0,38.1926026253,0.0,,38.19,0.0,red,3.7091307929809685
UDF,Ourense,Sarreaus,42.125482,-7.678987,SARREAUS,2920420137,20.0,0.0,0.0,8.4623288816,0.0,,8.46,0.0,red,3.1571219968732787
UDF,Ourense,Sarreaus,42.125482,-7.678987,SARREAUS,2920420137,132.0,0.6276170506,0.0,0.0,0.0,,0.63,100.0,green,3.0116531094030634
UDF,Ourense,Verín,41.932298,-7.465023,VERIN II,2920420285,20.0,0.0,0.0,36.7531876929,0.0,,36.75,0.0,red,3.682404846533808
UDF,Ourense,Verín,41.932298,-7.465023,VERIN II,2920420285,132.0,0.7532205746,0.0,0.0,0.0,,0.75,100.0,green,3.0139852187764196
UDF,Ourense,Xinzo de Limia,41.952776,-7.641286,LAROUCO,2920420116,132.0,0.3504956016,0.0,0.4799999893,0.0,,0.83,42.2,yellow,3.0154200016877613
UDF,Ourense,Xinzo de Limia,42.058649,-7.706384,XINZO,2920200053,20.0,0.0,0.0,18.8492244624,0.0,,18.85,0.0,red,3.3499778640705555
UDF,Ourense,Xinzo de Limia,42.058649,-7.706384,XINZO,2920200053,132.0,0.683188665,0.0,0.0,0.0,,0.68,100.0,green,3.0126849202846975
UDF,Pontevedra,A Estrada,42.68499,-8.503884,ESTRADA,2920200013,20.0,0.0,0.0,22.9800001144,0.0,,22.98,0.0,red,3.4266749208924647
UDF,Pontevedra,A Estrada,42.68499,-8.503884,ESTRADA,2920200013,66.0,4.0533896685,0.0,0.0,0.0,,4.05,100.0,green,3.0752602135571716
UDF,Pontevedra,Barro,42.519905,-8.674853,BARRO,2920420297,20.0,0.0,0.0,11.543150893,4.5,,16.04,0.0,red,3.2978768539625563
UDF,Pontevedra,Barro,42.519905,-8.674853,BARRO,2920420297,66.0,0.9484428994,0.0,0.0,0.0,,0.95,100.0,green,3.017609956355872
UDF,Pontevedra,Caldas de Reis,42.585556,-8.643853,TIBO,TIB,20.0,0.0,0.0,34.6719800246,0.0,,34.67,0.0,red,3.643762587490639
UDF,Pontevedra,Caldas de Reis,42.585556,-8.643853,TIBO,TIB,66.0,7.281426566,0.0,0.0,0.0,,7.28,100.0,green,3.135195913340554
UDF,Pontevedra,Cambados,42.512895,-8.783301,CAMBADOS,2920200020,20.0,0.0,0.0,29.3039000069,0.9,,30.2,0.0,red,3.560802723321677
UDF,Pontevedra,Cambados,42.512895,-8.783301,CAMBADOS,2920200020,66.0,0.3139636638,0.0,0.0,4.0,,4.31,7.3,orange,3.0800983505579453
UDF,Pontevedra,Cangas,42.289664,-8.784095,CANGAS 2,2920420284,20.0,0.0,0.0,49.8111463125,0.0,,49.81,0.0,red,3.924854952421476
UDF,Pontevedra,Cangas,42.289664,-8.784095,CANGAS 2,2920420284,66.0,1.9237649243,0.0,0.0,0.0,,1.92,100.0,green,3.0357189835859506
UDF,Pontevedra,Cerdedo-Cotobade,42.52307,-8.521843,SAN JORGE,2920200016,20.0,0.0,0.0,3.2400000095,0.0,,3.24,0.0,red,3.060157821621538
UDF,Pontevedra,Cerdedo-Cotobade,42.52307,-8.521843,SAN JORGE,2920200016,66.0,4.8516927638,0.0,0.0,0.0,,4.85,100.0,green,3.0900824898121617
UDF,Pontevedra,Gondomar,42.112949,-8.810801,GONDOMAR,2920200021,20.0,0.0,0.0,39.4281795713,0.0,,39.43,0.0,red,3.7320720328881327
UDF,Pontevedra,Gondomar,42.112949,-8.810801,GONDOMAR,2920200021,132.0,2.5865656304,0.0,0.0,0.0,,2.59,100.0,green,3.048025355972149
UDF,Pontevedra,Lalín,42.652241,-8.111519,LALIN,2920200012,20.0,0.50819815,0.0,52.0566865107,0.0,,52.56,1.0,orange,3.9759842425010055
UDF,Pontevedra,Lalín,42.652241,-8.111519,LALIN,2920200012,66.0,0.1408857026,0.0,0.0,0.0,,0.14,100.0,green,3.0026158570806127
UDF,Pontevedra,Mos,42.215379,-8.644472,MOS,2920200120,15.0,1.5584588085,0.0,17.8634605392,0.0,,19.42,8.0,orange,3.3606112210620456
UDF,Pontevedra,Mos,42.215379,-8.644472,MOS,2920200120,132.0,2.9314702932,0.0,0.0,0.0,,2.93,100.0,green,3.0544292797747175
UDF,Pontevedra,O Porriño,42.137664,-8.621942,ATIOS,ATI,15.0,2.0747580348,0.0,134.1167761783,0.0,,136.19,1.5,orange,5.52869938195451
UDF,Pontevedra,O Porriño,42.137664,-8.621942,ATIOS,ATI,132.0,1.4247552372,0.0,0.0,0.0,,1.42,100.0,green,3.026453756531642
UDF,Pontevedra,O Rosal,41.927851,-8.848109,ROSAL,2920200006,20.0,0.6659686399,0.0,20.9534249436,0.0,,21.62,3.1,orange,3.4014122280705554
UDF,Pontevedra,O Rosal,41.927851,-8.848109,ROSAL,2920200006,132.0,1.1592047912,0.0,0.0,0.0,,1.16,100.0,green,3.0215232206319045
UDF,Pontevedra,Pazos de Borbén,42.263182,-8.590112,PAZOS DE BORBEN,PAZ,66.0,3.9079846466,0.0,0.0,0.0,,3.91,100.0,green,3.0725604452409097
UDF,Pontevedra,Pazos de Borbén,42.263182,-8.590112,PAZOS DE BORBEN,PAZ,132.0,2.6783941439,0.0,0.0,0.0,,2.68,100.0,green,3.049730356996441
UDF,Pontevedra,Ponte Caldelas,42.366587,-8.554517,PONTECALDELAS,2920200023,20.0,0.0,0.0,8.0700001717,0.0,,8.07,0.0,red,3.1498375399356338
UDF,Pontevedra,Ponte Caldelas,42.366587,-8.554517,PONTECALDELAS,2920200023,66.0,5.5964855805,0.0,0.0,0.0,,5.6,100.0,green,3.1039112284790344
UDF,Pontevedra,Ponteareas,42.184882,-8.505236,PONTEAREAS,2920200024,20.0,0.0,0.0,39.0399992371,5.0,,44.04,0.0,red,3.8177007439969053
UDF,Pontevedra,Ponteareas,42.184882,-8.505236,PONTEAREAS,2920200024,132.0,1.2246404255,0.0,0.0,0.0,,1.22,100.0,green,3.022738179028315
UDF,Pontevedra,Pontevedra,42.417314,-8.664776,LOURIZAN,LOU,20.0,0.0,0.0,83.476622445,5.0,,88.48,0.0,red,4.642765696023519
UDF,Pontevedra,Pontevedra,42.417314,-8.664776,LOURIZAN,LOU,66.0,1.5239516381,0.0,0.0,0.0,,1.52,100.0,green,3.028295558807365
UDF,Pontevedra,Pontevedra,42.438191,-8.620402,MOURENTE,2920200007,20.0,0.0,0.0,74.406432976,20.0,,94.41,0.0,red,4.752865845136934
UDF,Pontevedra,Pontevedra,42.438191,-8.620402,MOURENTE,2920200007,66.0,7.3125155368,0.0,0.0,0.0,,7.31,100.0,green,3.1357731493758316
UDF,Pontevedra,Pontevedra,42.350022,-8.613096,PONTESAMPAIO,2920200002,20.0,0.0,0.0,21.2600691416,0.0,,21.26,0.0,red,3.394740568929599
UDF,Pontevedra,Pontevedra,42.350022,-8.613096,PONTESAMPAIO,2920200002,66.0,5.604821127,0.0,0.0,0.0,,5.6,100.0,green,3.1040659964784156
UDF,Pontevedra,Redondela,42.284827,-8.623001,REDONDELA,2920200017,15.0,0.0,0.0,37.7299995422,0.0,,37.73,0.0,red,3.7005415356744544
UDF,Pontevedra,Redondela,42.284827,-8.623001,REDONDELA,2920200017,66.0,4.4323917847,0.0,0.0,0.0,,4.43,100.0,green,3.0822972325799163
UDF,Pontevedra,Salvaterra de Miño,42.089631,-8.465336,SALVATERRA,2920200019,20.0,0.0,0.0,55.515253091,10.0,,65.52,0.0,red,4.216436696722885
UDF,Pontevedra,Salvaterra de Miño,42.089631,-8.465336,SALVATERRA,2920200019,132.0,3.4704786351,0.0,25.0,0.0,,28.47,12.2,orange,3.528617892033421
UDF,Pontevedra,Sanxenxo,42.436433,-8.804467,SANXENXO,2920420292,20.0,0.0,0.0,9.0023288243,5.0,,14.0,0.0,red,3.2599844435890453
UDF,Pontevedra,Sanxenxo,42.436433,-8.804467,SANXENXO,2920420292,66.0,0.0952933372,0.0,0.0,20.0,,20.1,0.5,orange,3.3731139100207335
UDF,Pontevedra,Sanxenxo,42.442968,-8.833098,VILLALONGA,2920200011,20.0,0.0,0.0,38.4152592112,13.4,,51.82,0.0,red,3.9620657752350303
UDF,Pontevedra,Sanxenxo,42.442968,-8.833098,VILLALONGA,2920200011,66.0,0.2841424625,0.0,0.0,0.0,,0.28,100.0,green,3.00527573812471
UDF,Pontevedra,Silleda,42.769413,-8.349891,PAIZAS,2920420255,20.0,0.0,0.0,11.9499998093,0.0,,11.95,0.0,red,3.2218783811103204
UDF,Pontevedra,Silleda,42.769413,-8.349891,PAIZAS,2920420255,66.0,0.0372007534,0.0,0.0,0.0,,0.04,100.0,green,3.000690714901439
UDF,Pontevedra,Tui,42.055396,-8.658953,TUI,2920320002,20.0,0.0,0.0,24.3900005341,0.0,,24.39,0.0,red,3.452854721351075
UDF,Pontevedra,Tui,42.055396,-8.658953,TUI,2920320002,132.0,0.3003735238,0.0,0.0,0.0,,0.3,100.0,green,3.005577103954201
UDF,Pontevedra,Vigo,42.210593,-8.735848,BALAIDOS,2920200003,15.0,0.0,0.0,98.5932137683,0.29,,98.88,0.0,red,4.835987258578989
UDF,Pontevedra,Vigo,42.210593,-8.735848,BALAIDOS,2920200003,132.0,2.575598311,0.0,0.0,0.0,,2.58,100.0,green,3.047821723243076
UDF,Pontevedra,Vigo,42.234676,-8.726523,EL CASTRO,2920420191,15.0,0.0,0.0,38.4685923947,0.0,,38.47,0.0,red,3.71425515818722
UDF,Pontevedra,Vigo,42.234676,-8.726523,EL CASTRO,2920420191,132.0,2.5653816441,0.0,0.0,0.0,,2.57,100.0,green,3.0476320280507503
UDF,Pontevedra,Vigo,42.21107,-8.699295,SARDOMA,2920200018,15.0,0.0,0.0,60.2358226198,24.96,,85.2,0.0,red,4.581850334887204
UDF,Pontevedra,Vigo,42.21107,-8.699295,SARDOMA,2920200018,132.0,3.0570705468,0.0,0.0,0.0,,3.06,100.0,green,3.0567613284258086
UDF,Pontevedra,Vigo,42.244346,-8.694748,TRONCAL,2920200001,15.0,0.0,0.0,55.9842982665,0.48,,56.46,0.0,red,4.048385547265975
UDF,Pontevedra,Vigo,42.244346,-8.694748,TRONCAL,2920200001,132.0,2.4894308847,0.0,0.0,0.0,,2.49,100.0,green,3.0462218329203155
UDF,Pontevedra,Vigo,42.17508,-8.708953,VALLADARES,2920420145,15.0,0.0,0.0,68.0100164943,0.0,,68.01,0.0,red,4.262757539736345
UDF,Pontevedra,Vigo,42.17508,-8.708953,VALLADARES,2920420145,132.0,1.6529945708,0.0,3.25,0.0,,4.9,33.7,yellow,3.0910350222026923
UDF,Pontevedra,Vila de Cruces,42.853664,-8.189703,PORTODEMOUROS,PDM,15.0,0.0,0.0,19.6900005341,0.0,,19.69,0.0,red,3.3655887457979268
UDF,Pontevedra,Vila de Cruces,42.853664,-8.189703,PORTODEMOUROS,PDM,66.0,0.1630314786,0.0,8.1315068493,0.0,,8.29,2.0,orange,3.1540065912653565
UDF,Pontevedra,Vilagarcía de Arousa,42.595891,-8.747525,VILAGARCIA DE AROUSA,2920420129,20.0,0.0,0.0,58.0958500792,10.0,,68.1,0.0,red,4.264351231549435
UDF,Pontevedra,Vilagarcía de Arousa,42.595891,-8.747525,VILAGARCIA DE AROUSA,2920420129,66.0,4.2324885066,0.0,0.0,0.0,,4.23,100.0,green,3.0785855826693487
UDF,Segovia,Arcones,41.138065,-3.724593,PRADENA,3020410893,15.0,0.0,0.0,2.4405485631,0.0,,2.44,0.0,red,3.0453142236688846
UDF,Segovia,Arcones,41.138065,-3.724593,PRADENA,3020410893,45.0,1.0458348401,0.0,0.0,0.0,,1.05,100.0,green,3.0194182548061272
UDF,Segovia,Bernardos,41.149424,-4.333472,PUENTE DE PIEDRA,3020300105,15.0,0.0,0.0,23.8333379393,0.0,,23.83,0.0,red,3.442519039566146
UDF,Segovia,Bernardos,41.149424,-4.333472,PUENTE DE PIEDRA,3020300105,45.0,0.5583905224,0.0,0.0,10.5,,11.06,5.0,orange,3.205323667443602
UDF,Segovia,Bernardos,41.149424,-4.333472,PUENTE DE PIEDRA,3020300105,132.0,0.804366333,0.0,0.0,0.0,,0.8,100.0,green,3.0149348537768836
UDF,Segovia,Boceguillas,41.338892,-3.636265,BOCEGUILLAS,3020100013,15.0,0.0,0.0,11.6832614976,0.0,,11.68,0.0,red,3.216925789836299
UDF,Segovia,Boceguillas,41.338892,-3.636265,BOCEGUILLAS,3020100013,45.0,0.6099262923,0.0,0.0,0.0,,0.61,100.0,green,3.011324641045335
UDF,Segovia,Campo de San Pedro,41.432191,-3.55024,CAMPO DE SAN PEDRO,3020100015,15.0,0.0,0.0,2.2396265238,0.0,,2.24,0.0,red,3.041583658185982
UDF,Segovia,Campo de San Pedro,41.432191,-3.55024,CAMPO DE SAN PEDRO,3020100015,45.0,0.2966299066,0.0,0.0,0.0,,0.3,100.0,green,3.005507595356955
UDF,Segovia,Cantalejo,41.261192,-3.907391,CANTALEJO,3020100016,15.0,0.0,0.0,13.7334824668,0.0,,13.73,0.0,red,3.254992711746248
UDF,Segovia,Cantalejo,41.261192,-3.907391,CANTALEJO,3020100016,45.0,1.1936997604,0.0,0.0,0.0,,1.19,100.0,green,3.022163696618908
UDF,Segovia,Cantalejo,41.261192,-3.907391,CANTALEJO,3020100016,132.0,1.0920689729,0.0,0.2300000042,0.0,,1.32,82.6,green,3.024547157241529
UDF,Segovia,Carrascal del Río,41.337378,-3.886286,C.H.BURGOMILLODO,3020300102,15.0,0.0,0.0,3.175292773,0.0,,3.18,0.0,red,3.0589563875537675
UDF,Segovia,Carrascal del Río,41.337378,-3.886286,C.H.BURGOMILLODO,3020300102,45.0,0.299285318,0.0,0.0,0.0,,0.3,100.0,green,3.005556898988086
UDF,Segovia,Cuéllar,41.394762,-4.309406,CUELLAR,3020300103,15.0,0.0,0.0,17.9840540681,3.0,,20.98,0.0,red,3.389615733896333
UDF,Segovia,Cuéllar,41.394762,-4.309406,CUELLAR,3020300103,45.0,0.0892392905,0.0,0.0,0.0,,0.09,100.0,green,3.0016569263283306
UDF,Segovia,El Espinar,40.742617,-4.26991,CRISTO DEL CALOCO,3020100018,15.0,0.2122633966,0.0,9.888886823,0.0,,10.1,2.1,orange,3.1875503676855947
UDF,Segovia,El Espinar,40.742617,-4.26991,CRISTO DEL CALOCO,3020100018,45.0,2.2150059256,0.0,0.0,0.0,,2.22,100.0,green,3.0411265219049977
UDF,Segovia,El Espinar,40.779468,-4.233747,LOS ANGELES DE S. RAFAEL,3020100021,15.0,0.0,0.0,4.1082014589,0.0,,4.11,0.0,red,3.0762779166127188
UDF,Segovia,El Espinar,40.779468,-4.233747,LOS ANGELES DE S. RAFAEL,3020100021,45.0,1.7909481098,0.0,0.0,0.0,,1.79,100.0,green,3.033252943397184
UDF,Segovia,Escalona del Prado,41.154516,-4.115882,ESCALONA DEL PRADO,3020100020,15.0,0.0,0.0,11.3661723444,0.0,,11.37,0.0,red,3.2110383229658055
UDF,Segovia,Escalona del Prado,41.154516,-4.115882,ESCALONA DEL PRADO,3020100020,45.0,0.3361434197,0.0,0.0,0.0,,0.34,100.0,green,3.006241251796998
UDF,Segovia,Fuentepelayo,41.218752,-4.170923,FUENTEPELAYO,3020420415,45.0,0.3257314537,0.0,0.0,0.0,,0.33,100.0,green,3.0060479304415906
UDF,Segovia,Lastras del Pozo,40.88096,-4.339131,LASTRAS DEL POZO,LST,15.0,1.4022997149,0.0,3.5351511527,0.0,,4.94,28.4,yellow,3.0916747801503948
UDF,Segovia,Lastras del Pozo,40.88096,-4.339131,LASTRAS DEL POZO,LST,45.0,5.1052088526,0.0,0.0,0.0,,5.11,100.0,green,3.0947895810478108
UDF,Segovia,Lastras del Pozo,40.88096,-4.339131,LASTRAS DEL POZO,LST,132.0,5.8302418874,0.0,0.0,0.0,,5.83,100.0,green,3.108251435322296
UDF,Segovia,Nava de la Asunción,41.155503,-4.499132,NAVA DE LA ASUNCION,3020300104,15.0,0.0,0.0,11.7467060817,0.0,,11.75,0.0,red,3.2181037799480117
UDF,Segovia,Nava de la Asunción,41.155503,-4.499132,NAVA DE LA ASUNCION,3020300104,45.0,0.5170365304,0.0,0.0,0.0,,0.52,100.0,green,3.0095999355791427
UDF,Segovia,Otero de Herreros,40.812249,-4.207111,OTERO DE HERREROS,3020100023,15.0,0.0,0.0,7.1320661671,0.0,,7.13,0.0,red,3.13242270463438
UDF,Segovia,Otero de Herreros,40.812249,-4.207111,OTERO DE HERREROS,3020100023,45.0,1.4830227746,0.0,0.0,0.0,,1.48,100.0,green,3.0275356232325548
UDF,Segovia,Real Sitio de San Ildefonso,40.905071,-4.006571,SAN ILDEFONSO,3020100026,15.0,0.0,0.0,6.7011101406,0.23948,,6.94,0.0,red,3.128867525432771
UDF,Segovia,Real Sitio de San Ildefonso,40.905071,-4.006571,SAN ILDEFONSO,3020100026,45.0,0.6798683121,0.0,0.0,0.0,,0.68,100.0,green,3.01262327053257
UDF,Segovia,Riaza,41.274215,-3.494596,RIAZA,3020100025,15.0,0.0,0.0,9.3816320593,0.0,,9.38,0.0,red,3.1741909093479808
UDF,Segovia,Riaza,41.274215,-3.494596,RIAZA,3020100025,45.0,0.4925784697,0.0,0.0,0.0,,0.49,100.0,green,3.0091458171691166
UDF,Segovia,San Martín y Mudrián,41.201465,-4.349011,DIGESNOR,3020410188,45.0,0.0,0.0,6.570299871,0.0,,6.57,0.0,red,3.121992261259477
UDF,Segovia,Sanchonuño,41.323888,-4.311606,SANCHONUÑO,3020410254,15.0,0.0,0.0,24.8915273417,0.0,,24.89,0.0,red,3.4621666843577286
UDF,Segovia,Sanchonuño,41.323888,-4.311606,SANCHONUÑO,3020410254,45.0,0.0929365922,0.0,0.0,0.0,,0.09,100.0,green,3.001725574975089
UDF,Segovia,Segovia,40.950321,-4.105967,BATANES,3020100038,15.0,0.0,0.0,40.4334895727,0.0,,40.43,0.0,red,3.750737853740368
UDF,Segovia,Segovia,40.950321,-4.105967,BATANES,3020100038,45.0,0.312417762,0.0,0.0,0.0,,0.31,100.0,green,3.005800732081077
UDF,Segovia,Segovia,40.925176,-4.11533,CERRO DE LA HORCA,3020100017,15.0,0.0,0.0,48.6477793279,3.3,,51.95,0.0,red,3.9645263065678478
UDF,Segovia,Segovia,40.925176,-4.11533,CERRO DE LA HORCA,3020100017,45.0,0.4814347243,0.0,0.0,0.0,,0.48,100.0,green,3.008938908698128
UDF,Segovia,Segovia,40.934777,-4.082499,PALAZUELOS,3020410542,15.0,0.0,0.0,5.1959333264,0.0,,5.2,0.0,red,3.096474083114343
UDF,Segovia,Segovia,40.934777,-4.082499,PALAZUELOS,3020410542,45.0,1.2940627815,0.0,0.0,0.0,,1.29,100.0,green,3.024027159798855
UDF,Segovia,Segovia,40.934777,-4.082499,PALAZUELOS,3020410542,132.0,1.3488856445,0.0,0.0,0.0,,1.35,100.0,green,3.0250450684419
UDF,Segovia,Segovia,40.925266,-4.154695,PEROGORDO,3020410005,45.0,1.5924928148,0.0,0.0,0.0,,1.59,100.0,green,3.029568178520192
UDF,Segovia,Segovia,40.925266,-4.154695,PEROGORDO,3020410005,132.0,1.3642877483,0.0,0.0,0.0,,1.36,100.0,green,3.025331042827789
UDF,Segovia,Turégano,41.156834,-4.001548,TUREGANO,3020300106,15.0,0.0,0.0,7.5634945709,0.0,,7.56,0.0,red,3.1404331345362833
UDF,Segovia,Turégano,41.156834,-4.001548,TUREGANO,3020300106,45.0,0.0942904116,0.0,0.0,0.0,,0.09,100.0,green,3.001750711649698
UDF,Segovia,Valverde del Majano,40.95754,-4.198028,VALVERDE DEL MAJANO,3020100028,15.0,0.0,0.0,26.9589556962,6.873,,33.83,0.0,red,3.6281656635531485
UDF,Segovia,Valverde del Majano,40.95754,-4.198028,VALVERDE DEL MAJANO,3020100028,45.0,0.4309993758,0.0,16.0,0.0,,16.43,2.6,orange,3.305078125498375
UDF,Segovia,Villacastín,40.782109,-4.422139,VILLACASTIN,3020420361,15.0,0.0,0.0,12.6438427409,0.8,,13.44,0.0,red,3.2496149046739906
UDF,Segovia,Villacastín,40.782109,-4.422139,VILLACASTIN,3020420361,45.0,1.3104039431,0.0,0.0,0.0,,1.31,100.0,green,3.0243305698858114
UDF,Soria,Arcos de Jalón,41.209674,-2.287757,ARCOS DEL JALON,3020300119,15.0,0.0,0.0,9.4008058074,0.0,,9.4,0.0,red,3.174546912716695
UDF,Soria,Arcos de Jalón,41.209674,-2.287757,ARCOS DEL JALON,3020300119,66.0,0.0,0.0,0.0,0.0,,0.0,0.0,red,3.0
UDF,Toledo,Añover de Tajo,39.980224,-3.756015,AÑOVER DEL TAJO,3020100164,15.0,0.0,0.0,26.2170121906,0.0,,26.22,0.0,red,3.48677726487266
UDF,Toledo,Añover de Tajo,39.980224,-3.756015,AÑOVER DEL TAJO,3020100164,45.0,0.0,0.0,0.0,0.0,,0.0,0.0,red,3.0
UDF,Toledo,Añover de Tajo,39.980224,-3.756015,AÑOVER DEL TAJO,3020100164,132.0,0.0,0.0,0.0,0.0,,0.0,0.0,red,3.0
UDF,Toledo,Arcicóllar,40.067816,-4.118838,ARCICOLLAR,3020410806,15.0,0.0,0.0,12.7821188653,0.0,,12.78,0.0,red,3.2373285260461087
